{"type":"FeatureCollection","totalFeatures":409,"features":[{"type":"Feature","id":"WLANWIENATOGD.1548238","geometry":{"type":"Point","coordinates":[16.301119180969238,48.23769169106475]},"geometry_name":"SHAPE","properties":{"OBJECTID":1548238,"NAME":"Schafbergbad_Rutsche","ADRESSE":"18., Schafbergbad (2) ","WEITERE_INFORMATIONEN":"http://www.wien.gv.at/ikt/egov/wlan/index.html","ANBIETER":"http://www.wien.gv.at/ikt/egov/wlan/wlan-multimediastationen.html","SE_ANNO_CAD_DATA":null}},{"type":"Feature","id":"WLANWIENATOGD.1548239","geometry":{"type":"Point","coordinates":[16.299587393133837,48.23827495782313]},"geometry_name":"SHAPE","properties":{"OBJECTID":1548239,"NAME":"Schafbergbad_Kassa","ADRESSE":"18., Schafbergbad (1) ","WEITERE_INFORMATIONEN":"http://www.wien.gv.at/ikt/egov/wlan/index.html","ANBIETER":"http://www.wien.gv.at/ikt/egov/wlan/wlan-multimediastationen.html","SE_ANNO_CAD_DATA":null}},{"type":"Feature","id":"WLANWIENATOGD.1548240","geometry":{"type":"Point","coordinates":[16.365632140417375,48.19991993212558]},"geometry_name":"SHAPE","properties":{"OBJECTID":1548240,"NAME":"Naschmarkt Secession","ADRESSE":"6., Linke Wienzeile 2 ","WEITERE_INFORMATIONEN":"http://www.wien.gv.at/ikt/egov/wlan/index.html","ANBIETER":"http://www.wien.gv.at/ikt/egov/wlan/wlan-multimediastationen.html","SE_ANNO_CAD_DATA":null}},{"type":"Feature","id":"WLANWIENATOGD.1548241","geometry":{"type":"Point","coordinates":[16.404426482379765,48.26912332978283]},"geometry_name":"SHAPE","properties":{"OBJECTID":1548241,"NAME":"KH Nord","ADRESSE":"21., Bruenner Strasse 53 ","WEITERE_INFORMATIONEN":"http://www.wien.gv.at/ikt/egov/wlan/index.html","ANBIETER":"http://www.wien.gv.at/ikt/egov/wlan/wlan-multimediastationen.html","SE_ANNO_CAD_DATA":null}},{"type":"Feature","id":"WLANWIENATOGD.1548242","geometry":{"type":"Point","coordinates":[16.336476761323127,48.22823545042054]},"geometry_name":"SHAPE","properties":{"OBJECTID":1548242,"NAME":"Norbert Liebemann","ADRESSE":"18., Aumannplatz 1 ","WEITERE_INFORMATIONEN":"http://www.wien.gv.at/ikt/egov/wlan/index.html","ANBIETER":"http://www.wien.gv.at/ikt/egov/wlan/wlan-multimediastationen.html","SE_ANNO_CAD_DATA":null}},{"type":"Feature","id":"WLANWIENATOGD.1548243","geometry":{"type":"Point","coordinates":[16.43257720745409,48.243269522631145]},"geometry_name":"SHAPE","properties":{"OBJECTID":1548243,"NAME":"Forum Donaustadt 1","ADRESSE":"22., Siebeckstrasse ","WEITERE_INFORMATIONEN":"http://www.wien.gv.at/ikt/egov/wlan/index.html","ANBIETER":"http://www.wien.gv.at/ikt/egov/wlan/wlan-multimediastationen.html","SE_ANNO_CAD_DATA":null}},{"type":"Feature","id":"WLANWIENATOGD.1548244","geometry":{"type":"Point","coordinates":[16.433413694887186,48.24316100781625]},"geometry_name":"SHAPE","properties":{"OBJECTID":1548244,"NAME":"Dr Adolf Schaerf Platz","ADRESSE":"22., Dr Adolf Schaerf Platz 4 ","WEITERE_INFORMATIONEN":"http://www.wien.gv.at/ikt/egov/wlan/index.html","ANBIETER":"http://www.wien.gv.at/ikt/egov/wlan/wlan-multimediastationen.html","SE_ANNO_CAD_DATA":null}},{"type":"Feature","id":"WLANWIENATOGD.1548245","geometry":{"type":"Point","coordinates":[16.43397735280317,48.24486445597348]},"geometry_name":"SHAPE","properties":{"OBJECTID":1548245,"NAME":"Forum Donaustadt 2","ADRESSE":"22., Prandaugasse 11 ","WEITERE_INFORMATIONEN":"http://www.wien.gv.at/ikt/egov/wlan/index.html","ANBIETER":"http://www.wien.gv.at/ikt/egov/wlan/wlan-multimediastationen.html","SE_ANNO_CAD_DATA":null}},{"type":"Feature","id":"WLANWIENATOGD.1548246","geometry":{"type":"Point","coordinates":[16.338846553138552,48.19647937107561]},"geometry_name":"SHAPE","properties":{"OBJECTID":1548246,"NAME":"Europaplatz Einfahrt","ADRESSE":"15., Europaplatz 2 (1) ","WEITERE_INFORMATIONEN":"http://www.wien.gv.at/ikt/egov/wlan/index.html","ANBIETER":"http://www.wien.gv.at/ikt/egov/wlan/wlan-multimediastationen.html","SE_ANNO_CAD_DATA":null}},{"type":"Feature","id":"WLANWIENATOGD.1548247","geometry":{"type":"Point","coordinates":[16.338585975005856,48.1971711804325]},"geometry_name":"SHAPE","properties":{"OBJECTID":1548247,"NAME":"Europaplatz Ausfahrt","ADRESSE":"15., Europaplatz 2 (2) ","WEITERE_INFORMATIONEN":"http://www.wien.gv.at/ikt/egov/wlan/index.html","ANBIETER":"http://www.wien.gv.at/ikt/egov/wlan/wlan-multimediastationen.html","SE_ANNO_CAD_DATA":null}},{"type":"Feature","id":"WLANWIENATOGD.1548248","geometry":{"type":"Point","coordinates":[16.37731959329942,48.23958878143743]},"geometry_name":"SHAPE","properties":{"OBJECTID":1548248,"NAME":"Hoechstaedtplatz ","ADRESSE":"20., Hoechstaedtplatz 5 ","WEITERE_INFORMATIONEN":"http://www.wien.gv.at/ikt/egov/wlan/index.html","ANBIETER":"http://www.wien.gv.at/ikt/egov/wlan/wlan-multimediastationen.html","SE_ANNO_CAD_DATA":null}},{"type":"Feature","id":"WLANWIENATOGD.1548249","geometry":{"type":"Point","coordinates":[16.387107954722453,48.15888697237064]},"geometry_name":"SHAPE","properties":{"OBJECTID":1548249,"NAME":"Volkspark Laaerberg","ADRESSE":"10., Ludwig von Hoehnel Gasse 11 ","WEITERE_INFORMATIONEN":"http://www.wien.gv.at/ikt/egov/wlan/index.html","ANBIETER":"http://www.wien.gv.at/ikt/egov/wlan/wlan-multimediastationen.html","SE_ANNO_CAD_DATA":null}},{"type":"Feature","id":"WLANWIENATOGD.1548250","geometry":{"type":"Point","coordinates":[16.414677343789467,48.214045917952554]},"geometry_name":"SHAPE","properties":{"OBJECTID":1548250,"NAME":"Trabrennstrasse","ADRESSE":"2., Trabrennstrasse 6 ","WEITERE_INFORMATIONEN":"http://www.wien.gv.at/ikt/egov/wlan/index.html","ANBIETER":"http://www.wien.gv.at/ikt/egov/wlan/wlan-multimediastationen.html","SE_ANNO_CAD_DATA":null}},{"type":"Feature","id":"WLANWIENATOGD.1548251","geometry":{"type":"Point","coordinates":[16.41316481943384,48.213400639296154]},"geometry_name":"SHAPE","properties":{"OBJECTID":1548251,"NAME":"Stella-Klein-Loew-Weg","ADRESSE":"2., Stella Klein Loew Weg ","WEITERE_INFORMATIONEN":"http://www.wien.gv.at/ikt/egov/wlan/index.html","ANBIETER":"http://www.wien.gv.at/ikt/egov/wlan/wlan-multimediastationen.html","SE_ANNO_CAD_DATA":null}},{"type":"Feature","id":"WLANWIENATOGD.1548252","geometry":{"type":"Point","coordinates":[16.42075682548714,48.210030105378074]},"geometry_name":"SHAPE","properties":{"OBJECTID":1548252,"NAME":"Ernst-Happel-Stadion","ADRESSE":"2., Olympiaplatz ","WEITERE_INFORMATIONEN":"http://www.wien.gv.at/ikt/egov/wlan/index.html","ANBIETER":"http://www.wien.gv.at/ikt/egov/wlan/wlan-multimediastationen.html","SE_ANNO_CAD_DATA":null}},{"type":"Feature","id":"WLANWIENATOGD.1548253","geometry":{"type":"Point","coordinates":[16.41819887882959,48.20774740685595]},"geometry_name":"SHAPE","properties":{"OBJECTID":1548253,"NAME":"Stadion","ADRESSE":"2., Meiereistrasse 18 ","WEITERE_INFORMATIONEN":"http://www.wien.gv.at/ikt/egov/wlan/index.html","ANBIETER":"http://www.wien.gv.at/ikt/egov/wlan/wlan-multimediastationen.html","SE_ANNO_CAD_DATA":null}},{"type":"Feature","id":"WLANWIENATOGD.1548254","geometry":{"type":"Point","coordinates":[16.442148090409166,48.154626473391346]},"geometry_name":"SHAPE","properties":{"OBJECTID":1548254,"NAME":"Johan-Hatzl-Platz","ADRESSE":"11., Simmeringer Hauptstrasse 241 ","WEITERE_INFORMATIONEN":"http://www.wien.gv.at/ikt/egov/wlan/index.html","ANBIETER":"http://www.wien.gv.at/ikt/egov/wlan/wlan-multimediastationen.html","SE_ANNO_CAD_DATA":null}},{"type":"Feature","id":"WLANWIENATOGD.1548255","geometry":{"type":"Point","coordinates":[16.416202527209737,48.174233479941016]},"geometry_name":"SHAPE","properties":{"OBJECTID":1548255,"NAME":"Simmeringer Hauptsrasse # Grillgasse","ADRESSE":"11., Simmeringer Hauptstrasse 96 ","WEITERE_INFORMATIONEN":"http://www.wien.gv.at/ikt/egov/wlan/index.html","ANBIETER":"http://www.wien.gv.at/ikt/egov/wlan/wlan-multimediastationen.html","SE_ANNO_CAD_DATA":null}},{"type":"Feature","id":"WLANWIENATOGD.1548256","geometry":{"type":"Point","coordinates":[16.319001641779384,48.19779244659]},"geometry_name":"SHAPE","properties":{"OBJECTID":1548256,"NAME":"Meiselmarkt # Johnstrasse","ADRESSE":"15., Johnstrasse 57 ","WEITERE_INFORMATIONEN":"http://www.wien.gv.at/ikt/egov/wlan/index.html","ANBIETER":"http://www.wien.gv.at/ikt/egov/wlan/wlan-multimediastationen.html","SE_ANNO_CAD_DATA":null}},{"type":"Feature","id":"WLANWIENATOGD.1548257","geometry":{"type":"Point","coordinates":[16.318943704628172,48.199237550468325]},"geometry_name":"SHAPE","properties":{"OBJECTID":1548257,"NAME":"Meiselmarkt # Huetteldorfer Strasse ","ADRESSE":"15., Huetteldorfer Strasse 82b ","WEITERE_INFORMATIONEN":"http://www.wien.gv.at/ikt/egov/wlan/index.html","ANBIETER":"http://www.wien.gv.at/ikt/egov/wlan/wlan-multimediastationen.html","SE_ANNO_CAD_DATA":null}},{"type":"Feature","id":"WLANWIENATOGD.1548258","geometry":{"type":"Point","coordinates":[16.307170949499472,48.22044056213808]},"geometry_name":"SHAPE","properties":{"OBJECTID":1548258,"NAME":"Nietzscheplatz","ADRESSE":"16., Nietzscheplatz 4 ","WEITERE_INFORMATIONEN":"http://www.wien.gv.at/ikt/egov/wlan/index.html","ANBIETER":"http://www.wien.gv.at/ikt/egov/wlan/wlan-multimediastationen.html","SE_ANNO_CAD_DATA":null}},{"type":"Feature","id":"WLANWIENATOGD.1548259","geometry":{"type":"Point","coordinates":[16.309122560510126,48.207622983363876]},"geometry_name":"SHAPE","properties":{"OBJECTID":1548259,"NAME":"Gutraterplatz","ADRESSE":"16., Gutraterplatz 1 ","WEITERE_INFORMATIONEN":"http://www.wien.gv.at/ikt/egov/wlan/index.html","ANBIETER":"http://www.wien.gv.at/ikt/egov/wlan/wlan-multimediastationen.html","SE_ANNO_CAD_DATA":null}},{"type":"Feature","id":"WLANWIENATOGD.1548260","geometry":{"type":"Point","coordinates":[16.382642132926353,48.21109121008237]},"geometry_name":"SHAPE","properties":{"OBJECTID":1548260,"NAME":"Julius Raab Platz","ADRESSE":"1., Julius Raab Platz ","WEITERE_INFORMATIONEN":"http://www.wien.gv.at/ikt/egov/wlan/index.html","ANBIETER":"http://www.wien.gv.at/ikt/egov/wlan/wlan-multimediastationen.html","SE_ANNO_CAD_DATA":null}},{"type":"Feature","id":"WLANWIENATOGD.1548261","geometry":{"type":"Point","coordinates":[16.364782090272776,48.19790609364555]},"geometry_name":"SHAPE","properties":{"OBJECTID":1548261,"NAME":"Kuehnplatz","ADRESSE":"4., Kuehnplatz 5 ","WEITERE_INFORMATIONEN":"http://www.wien.gv.at/ikt/egov/wlan/index.html","ANBIETER":"http://www.wien.gv.at/ikt/egov/wlan/wlan-multimediastationen.html","SE_ANNO_CAD_DATA":null}},{"type":"Feature","id":"WLANWIENATOGD.1548262","geometry":{"type":"Point","coordinates":[16.38071220521111,48.177885219115964]},"geometry_name":"SHAPE","properties":{"OBJECTID":1548262,"NAME":"Helmut Zilk Park","ADRESSE":"10., Gudrunstrasse 110 ","WEITERE_INFORMATIONEN":"http://www.wien.gv.at/ikt/egov/wlan/index.html","ANBIETER":"http://www.wien.gv.at/ikt/egov/wlan/wlan-multimediastationen.html","SE_ANNO_CAD_DATA":null}},{"type":"Feature","id":"WLANWIENATOGD.1548263","geometry":{"type":"Point","coordinates":[16.33270440505009,48.18117578686623]},"geometry_name":"SHAPE","properties":{"OBJECTID":1548263,"NAME":"Meidlingermarkt","ADRESSE":"12., Ignazgasse # Niederhofgasse ","WEITERE_INFORMATIONEN":"http://www.wien.gv.at/ikt/egov/wlan/index.html","ANBIETER":"http://www.wien.gv.at/ikt/egov/wlan/wlan-multimediastationen.html","SE_ANNO_CAD_DATA":null}},{"type":"Feature","id":"WLANWIENATOGD.1548264","geometry":{"type":"Point","coordinates":[16.314566512618917,48.223439409159525]},"geometry_name":"SHAPE","properties":{"OBJECTID":1548264,"NAME":"Park der Freiheit","ADRESSE":"17., Julius Meinl Gasse geg 15 ","WEITERE_INFORMATIONEN":"http://www.wien.gv.at/ikt/egov/wlan/index.html","ANBIETER":"http://www.wien.gv.at/ikt/egov/wlan/wlan-multimediastationen.html","SE_ANNO_CAD_DATA":null}},{"type":"Feature","id":"WLANWIENATOGD.1548265","geometry":{"type":"Point","coordinates":[16.36309619196475,48.23472464329601]},"geometry_name":"SHAPE","properties":{"OBJECTID":1548265,"NAME":"Anton Kummerer Park","ADRESSE":"20., Treustrasse 94 ","WEITERE_INFORMATIONEN":"http://www.wien.gv.at/ikt/egov/wlan/index.html","ANBIETER":"http://www.wien.gv.at/ikt/egov/wlan/wlan-multimediastationen.html","SE_ANNO_CAD_DATA":null}},{"type":"Feature","id":"WLANWIENATOGD.1548266","geometry":{"type":"Point","coordinates":[16.396297475079663,48.25169681094684]},"geometry_name":"SHAPE","properties":{"OBJECTID":1548266,"NAME":"Wasserpark","ADRESSE":"21., Wasserpark Liegewiese ","WEITERE_INFORMATIONEN":"http://www.wien.gv.at/ikt/egov/wlan/index.html","ANBIETER":"http://www.wien.gv.at/ikt/egov/wlan/wlan-multimediastationen.html","SE_ANNO_CAD_DATA":null}},{"type":"Feature","id":"WLANWIENATOGD.1548267","geometry":{"type":"Point","coordinates":[16.404268832166377,48.25029482875479]},"geometry_name":"SHAPE","properties":{"OBJECTID":1548267,"NAME":"An der oberen alten Donau # Birnersteig","ADRESSE":"21., An der oberen alten Donau ","WEITERE_INFORMATIONEN":"http://www.wien.gv.at/ikt/egov/wlan/index.html","ANBIETER":"http://www.wien.gv.at/ikt/egov/wlan/wlan-multimediastationen.html","SE_ANNO_CAD_DATA":null}},{"type":"Feature","id":"WLANWIENATOGD.1548268","geometry":{"type":"Point","coordinates":[16.40022842091308,48.25483013081348]},"geometry_name":"SHAPE","properties":{"OBJECTID":1548268,"NAME":"Brossmannplatz","ADRESSE":"21., Bodenstaedtgasse geg 18 ","WEITERE_INFORMATIONEN":"http://www.wien.gv.at/ikt/egov/wlan/index.html","ANBIETER":"http://www.wien.gv.at/ikt/egov/wlan/wlan-multimediastationen.html","SE_ANNO_CAD_DATA":null}},{"type":"Feature","id":"WLANWIENATOGD.1548269","geometry":{"type":"Point","coordinates":[16.492520135878138,48.248724805160016]},"geometry_name":"SHAPE","properties":{"OBJECTID":1548269,"NAME":"Feuerwehrspielplatz","ADRESSE":"22., An der Neurisse ","WEITERE_INFORMATIONEN":"http://www.wien.gv.at/ikt/egov/wlan/index.html","ANBIETER":"http://www.wien.gv.at/ikt/egov/wlan/wlan-multimediastationen.html","SE_ANNO_CAD_DATA":null}},{"type":"Feature","id":"WLANWIENATOGD.1548270","geometry":{"type":"Point","coordinates":[16.33413566782523,48.22086483724162]},"geometry_name":"SHAPE","properties":{"OBJECTID":1548270,"NAME":"Dornerplatz","ADRESSE":"17., Dornerplatz 13 ","WEITERE_INFORMATIONEN":"http://www.wien.gv.at/ikt/egov/wlan/index.html","ANBIETER":"http://www.wien.gv.at/ikt/egov/wlan/wlan-multimediastationen.html","SE_ANNO_CAD_DATA":null}},{"type":"Feature","id":"WLANWIENATOGD.1548271","geometry":{"type":"Point","coordinates":[16.33656516077161,48.223872738572666]},"geometry_name":"SHAPE","properties":{"OBJECTID":1548271,"NAME":"Johann Nepomuk Vogl Platz","ADRESSE":"18., Teschnergasse geg 8 ","WEITERE_INFORMATIONEN":"http://www.wien.gv.at/ikt/egov/wlan/index.html","ANBIETER":"http://www.wien.gv.at/ikt/egov/wlan/wlan-multimediastationen.html","SE_ANNO_CAD_DATA":null}},{"type":"Feature","id":"WLANWIENATOGD.1548272","geometry":{"type":"Point","coordinates":[16.280184081381204,48.13614338935321]},"geometry_name":"SHAPE","properties":{"OBJECTID":1548272,"NAME":"Liesingerplatz Riverside","ADRESSE":"23., Breitenfurter Strasse 370 ","WEITERE_INFORMATIONEN":"http://www.wien.gv.at/ikt/egov/wlan/index.html","ANBIETER":"http://www.wien.gv.at/ikt/egov/wlan/wlan-multimediastationen.html","SE_ANNO_CAD_DATA":null}},{"type":"Feature","id":"WLANWIENATOGD.1548273","geometry":{"type":"Point","coordinates":[16.395091983968413,48.210101727524034]},"geometry_name":"SHAPE","properties":{"OBJECTID":1548273,"NAME":"Weissgerberlaende 14","ADRESSE":"3., Weissgerberlaende 14 ","WEITERE_INFORMATIONEN":"http://www.wien.gv.at/ikt/egov/wlan/index.html","ANBIETER":"http://www.wien.gv.at/ikt/egov/wlan/wlan-multimediastationen.html","SE_ANNO_CAD_DATA":null}},{"type":"Feature","id":"WLANWIENATOGD.1548274","geometry":{"type":"Point","coordinates":[16.330410395091402,48.17426876549552]},"geometry_name":"SHAPE","properties":{"OBJECTID":1548274,"NAME":"Edelsinnstrasse 2 ","ADRESSE":"12., Edelsinnstrasse 2  ","WEITERE_INFORMATIONEN":"http://www.wien.gv.at/ikt/egov/wlan/index.html","ANBIETER":"http://www.wien.gv.at/ikt/egov/wlan/wlan-multimediastationen.html","SE_ANNO_CAD_DATA":null}},{"type":"Feature","id":"WLANWIENATOGD.1548275","geometry":{"type":"Point","coordinates":[16.33152794559414,48.174709213393136]},"geometry_name":"SHAPE","properties":{"OBJECTID":1548275,"NAME":"Wilhelmstrasse 66 ","ADRESSE":"12., Wilhelmstrasse 66  ","WEITERE_INFORMATIONEN":"http://www.wien.gv.at/ikt/egov/wlan/index.html","ANBIETER":"http://www.wien.gv.at/ikt/egov/wlan/wlan-multimediastationen.html","SE_ANNO_CAD_DATA":null}},{"type":"Feature","id":"WLANWIENATOGD.1548276","geometry":{"type":"Point","coordinates":[16.279096515183387,48.169260940295395]},"geometry_name":"SHAPE","properties":{"OBJECTID":1548276,"NAME":"Wolkersbergerstrasse 1 ","ADRESSE":"13., Wolkersbergerstrasse 1 (1) ","WEITERE_INFORMATIONEN":"http://www.wien.gv.at/ikt/egov/wlan/index.html","ANBIETER":"http://www.wien.gv.at/ikt/egov/wlan/wlan-multimediastationen.html","SE_ANNO_CAD_DATA":null}},{"type":"Feature","id":"WLANWIENATOGD.1548277","geometry":{"type":"Point","coordinates":[16.2714287202983,48.19895112660781]},"geometry_name":"SHAPE","properties":{"OBJECTID":1548277,"NAME":"Leon Askin Platz","ADRESSE":"14., Linzer Strasse 319 ","WEITERE_INFORMATIONEN":"http://www.wien.gv.at/ikt/egov/wlan/index.html","ANBIETER":"http://www.wien.gv.at/ikt/egov/wlan/wlan-multimediastationen.html","SE_ANNO_CAD_DATA":null}},{"type":"Feature","id":"WLANWIENATOGD.1548278","geometry":{"type":"Point","coordinates":[16.33589604367038,48.211149842923284]},"geometry_name":"SHAPE","properties":{"OBJECTID":1548278,"NAME":"Brunnengasse 55","ADRESSE":"16., Brunnengasse 55 ","WEITERE_INFORMATIONEN":"http://www.wien.gv.at/ikt/egov/wlan/index.html","ANBIETER":"http://www.wien.gv.at/ikt/egov/wlan/wlan-multimediastationen.html","SE_ANNO_CAD_DATA":null}},{"type":"Feature","id":"WLANWIENATOGD.1548279","geometry":{"type":"Point","coordinates":[16.453768324344885,48.158143189406196]},"geometry_name":"SHAPE","properties":{"OBJECTID":1548279,"NAME":"Thuernlhofstrasse 30","ADRESSE":"11., Thuernlhofstrasse 30 ","WEITERE_INFORMATIONEN":"http://www.wien.gv.at/ikt/egov/wlan/index.html","ANBIETER":"http://www.wien.gv.at/ikt/egov/wlan/wlan-multimediastationen.html","SE_ANNO_CAD_DATA":null}},{"type":"Feature","id":"WLANWIENATOGD.1548280","geometry":{"type":"Point","coordinates":[16.31934610781415,48.18405340448846]},"geometry_name":"SHAPE","properties":{"OBJECTID":1548280,"NAME":"Gruenbergstrasse Eingang Schloss Schoenbrunn","ADRESSE":"12., Schoenbrunner Strasse 282 ","WEITERE_INFORMATIONEN":"http://www.wien.gv.at/ikt/egov/wlan/index.html","ANBIETER":"http://www.wien.gv.at/ikt/egov/wlan/wlan-multimediastationen.html","SE_ANNO_CAD_DATA":null}},{"type":"Feature","id":"WLANWIENATOGD.1548281","geometry":{"type":"Point","coordinates":[16.313250659426018,48.18787024541142]},"geometry_name":"SHAPE","properties":{"OBJECTID":1548281,"NAME":"Hadikpark","ADRESSE":"14., Hadikgasse 12 ","WEITERE_INFORMATIONEN":"http://www.wien.gv.at/ikt/egov/wlan/index.html","ANBIETER":"http://www.wien.gv.at/ikt/egov/wlan/wlan-multimediastationen.html","SE_ANNO_CAD_DATA":null}},{"type":"Feature","id":"WLANWIENATOGD.1548282","geometry":{"type":"Point","coordinates":[16.314813783555635,48.187817358983665]},"geometry_name":"SHAPE","properties":{"OBJECTID":1548282,"NAME":"Linke Wienzeile Schlossbruecke ","ADRESSE":"14., Schoenbrunner Schlossbruecke (1) ","WEITERE_INFORMATIONEN":"http://www.wien.gv.at/ikt/egov/wlan/index.html","ANBIETER":"http://www.wien.gv.at/ikt/egov/wlan/wlan-multimediastationen.html","SE_ANNO_CAD_DATA":null}},{"type":"Feature","id":"WLANWIENATOGD.1548283","geometry":{"type":"Point","coordinates":[16.22283059438511,48.20868262766508]},"geometry_name":"SHAPE","properties":{"OBJECTID":1548283,"NAME":"Hadersdorf Weidlingau Bad","ADRESSE":"14., Hauptstrasse 41 ","WEITERE_INFORMATIONEN":"http://www.wien.gv.at/ikt/egov/wlan/index.html","ANBIETER":"http://www.wien.gv.at/ikt/egov/wlan/wlan-multimediastationen.html","SE_ANNO_CAD_DATA":null}},{"type":"Feature","id":"WLANWIENATOGD.1548284","geometry":{"type":"Point","coordinates":[16.40268375211248,48.24893135196298]},"geometry_name":"SHAPE","properties":{"OBJECTID":1548284,"NAME":"Angelibad","ADRESSE":"21., Birnersteig ","WEITERE_INFORMATIONEN":"http://www.wien.gv.at/ikt/egov/wlan/index.html","ANBIETER":"http://www.wien.gv.at/ikt/egov/wlan/wlan-multimediastationen.html","SE_ANNO_CAD_DATA":null}},{"type":"Feature","id":"WLANWIENATOGD.1548285","geometry":{"type":"Point","coordinates":[16.28533733978099,48.14756927924014]},"geometry_name":"SHAPE","properties":{"OBJECTID":1548285,"NAME":"Höpflerbad\r\nHöpflerbad\r\n","ADRESSE":"23., Endresstrasse 24-26 ","WEITERE_INFORMATIONEN":"http://www.wien.gv.at/ikt/egov/wlan/index.html","ANBIETER":"http://www.wien.gv.at/ikt/egov/wlan/wlan-multimediastationen.html","SE_ANNO_CAD_DATA":null}},{"type":"Feature","id":"WLANWIENATOGD.1548286","geometry":{"type":"Point","coordinates":[16.281044697212593,48.13261912045306]},"geometry_name":"SHAPE","properties":{"OBJECTID":1548286,"NAME":"Liesingerbad","ADRESSE":"23., Perchtoldsdorfer Strasse 14 ","WEITERE_INFORMATIONEN":"http://www.wien.gv.at/ikt/egov/wlan/index.html","ANBIETER":"http://www.wien.gv.at/ikt/egov/wlan/wlan-multimediastationen.html","SE_ANNO_CAD_DATA":null}},{"type":"Feature","id":"WLANWIENATOGD.1548287","geometry":{"type":"Point","coordinates":[16.283391273042753,48.19874901006262]},"geometry_name":"SHAPE","properties":{"OBJECTID":1548287,"NAME":"Pachmanngasse 14","ADRESSE":"14., Pachmanngasse 14 ","WEITERE_INFORMATIONEN":"http://www.wien.gv.at/ikt/egov/wlan/index.html","ANBIETER":"http://www.wien.gv.at/ikt/egov/wlan/wlan-multimediastationen.html","SE_ANNO_CAD_DATA":null}},{"type":"Feature","id":"WLANWIENATOGD.1548288","geometry":{"type":"Point","coordinates":[16.383974313367666,48.15920009604129]},"geometry_name":"SHAPE","properties":{"OBJECTID":1548288,"NAME":"Laabergbad 2","ADRESSE":"10., Ludwig von Hoehnel Gasse 2 (2) ","WEITERE_INFORMATIONEN":"http://www.wien.gv.at/ikt/egov/wlan/index.html","ANBIETER":"http://www.wien.gv.at/ikt/egov/wlan/wlan-multimediastationen.html","SE_ANNO_CAD_DATA":null}},{"type":"Feature","id":"WLANWIENATOGD.1548289","geometry":{"type":"Point","coordinates":[16.38544369905847,48.1592512698147]},"geometry_name":"SHAPE","properties":{"OBJECTID":1548289,"NAME":"Laabergbad 1","ADRESSE":"10., Ludwig von Hoehnel Gasse 2 (1) ","WEITERE_INFORMATIONEN":"http://www.wien.gv.at/ikt/egov/wlan/index.html","ANBIETER":"http://www.wien.gv.at/ikt/egov/wlan/wlan-multimediastationen.html","SE_ANNO_CAD_DATA":null}},{"type":"Feature","id":"WLANWIENATOGD.1548293","geometry":{"type":"Point","coordinates":[16.483507564946585,48.21788820275743]},"geometry_name":"SHAPE","properties":{"OBJECTID":1548293,"NAME":"Asperner Heldenplatz ","ADRESSE":"22., Asperner Heldenplatz geg 1  ","WEITERE_INFORMATIONEN":"http://www.wien.gv.at/ikt/egov/wlan/index.html","ANBIETER":"http://www.wien.gv.at/ikt/egov/wlan/wlan-multimediastationen.html","SE_ANNO_CAD_DATA":null}},{"type":"Feature","id":"WLANWIENATOGD.1548294","geometry":{"type":"Point","coordinates":[16.31225406553239,48.21532941074932]},"geometry_name":"SHAPE","properties":{"OBJECTID":1548294,"NAME":"Mildeplatz","ADRESSE":"16., Mildeplatz geg 3 ","WEITERE_INFORMATIONEN":"http://www.wien.gv.at/ikt/egov/wlan/index.html","ANBIETER":"http://www.wien.gv.at/ikt/egov/wlan/wlan-multimediastationen.html","SE_ANNO_CAD_DATA":null}},{"type":"Feature","id":"WLANWIENATOGD.1548295","geometry":{"type":"Point","coordinates":[16.357817342875954,48.205064006205504]},"geometry_name":"SHAPE","properties":{"OBJECTID":1548295,"NAME":"Volkstheater","ADRESSE":"7., Museumstrasse 2a ","WEITERE_INFORMATIONEN":"http://www.wien.gv.at/ikt/egov/wlan/index.html","ANBIETER":"http://www.wien.gv.at/ikt/egov/wlan/wlan-multimediastationen.html","SE_ANNO_CAD_DATA":null}},{"type":"Feature","id":"WLANWIENATOGD.1548296","geometry":{"type":"Point","coordinates":[16.32865513459757,48.231867228977976]},"geometry_name":"SHAPE","properties":{"OBJECTID":1548296,"NAME":"Gersthofermarkt","ADRESSE":"18., Gentzgasse 170 ","WEITERE_INFORMATIONEN":"http://www.wien.gv.at/ikt/egov/wlan/index.html","ANBIETER":"http://www.wien.gv.at/ikt/egov/wlan/wlan-multimediastationen.html","SE_ANNO_CAD_DATA":null}},{"type":"Feature","id":"WLANWIENATOGD.1548297","geometry":{"type":"Point","coordinates":[16.41729508774431,48.24279892246585]},"geometry_name":"SHAPE","properties":{"OBJECTID":1548297,"NAME":"Alte Donau Bad","ADRESSE":"22., Arbeiterstrandbadstrasse 91 ","WEITERE_INFORMATIONEN":"http://www.wien.gv.at/ikt/egov/wlan/index.html","ANBIETER":"http://www.wien.gv.at/ikt/egov/wlan/wlan-multimediastationen.html","SE_ANNO_CAD_DATA":null}},{"type":"Feature","id":"WLANWIENATOGD.1548298","geometry":{"type":"Point","coordinates":[16.375496744280472,48.18112189909524]},"geometry_name":"SHAPE","properties":{"OBJECTID":1548298,"NAME":"Favoritenstrasse","ADRESSE":"10., Favoritenstrasse 77 ","WEITERE_INFORMATIONEN":"http://www.wien.gv.at/ikt/egov/wlan/index.html","ANBIETER":"http://www.wien.gv.at/ikt/egov/wlan/wlan-multimediastationen.html","SE_ANNO_CAD_DATA":null}},{"type":"Feature","id":"WLANWIENATOGD.1548299","geometry":{"type":"Point","coordinates":[16.376529266738324,48.177997210261836]},"geometry_name":"SHAPE","properties":{"OBJECTID":1548299,"NAME":"Favoritenstrasse 80","ADRESSE":"10., Favoritenstrasse 80 ","WEITERE_INFORMATIONEN":"http://www.wien.gv.at/ikt/egov/wlan/index.html","ANBIETER":"http://www.wien.gv.at/ikt/egov/wlan/wlan-multimediastationen.html","SE_ANNO_CAD_DATA":null}},{"type":"Feature","id":"WLANWIENATOGD.1548300","geometry":{"type":"Point","coordinates":[16.33698746371973,48.19774707023751]},"geometry_name":"SHAPE","properties":{"OBJECTID":1548300,"NAME":"Felberstrasse # Pelzgasse","ADRESSE":"15., Felberstrasse geg 8 ","WEITERE_INFORMATIONEN":"http://www.wien.gv.at/ikt/egov/wlan/index.html","ANBIETER":"http://www.wien.gv.at/ikt/egov/wlan/wlan-multimediastationen.html","SE_ANNO_CAD_DATA":null}},{"type":"Feature","id":"WLANWIENATOGD.1548304","geometry":{"type":"Point","coordinates":[16.416238040131915,48.20435001623181]},"geometry_name":"SHAPE","properties":{"OBJECTID":1548304,"NAME":"Hauptallee","ADRESSE":"2., Hauptallee Meiereistrasse ","WEITERE_INFORMATIONEN":"http://www.wien.gv.at/ikt/egov/wlan/index.html","ANBIETER":"http://www.wien.gv.at/ikt/egov/wlan/wlan-multimediastationen.html","SE_ANNO_CAD_DATA":null}},{"type":"Feature","id":"WLANWIENATOGD.1548305","geometry":{"type":"Point","coordinates":[16.400090790561002,48.212812210964316]},"geometry_name":"SHAPE","properties":{"OBJECTID":1548305,"NAME":"Hauptallee Skaterpark","ADRESSE":"2., Hauptallee Skaterpark ","WEITERE_INFORMATIONEN":"http://www.wien.gv.at/ikt/egov/wlan/index.html","ANBIETER":"http://www.wien.gv.at/ikt/egov/wlan/wlan-multimediastationen.html","SE_ANNO_CAD_DATA":null}},{"type":"Feature","id":"WLANWIENATOGD.1548306","geometry":{"type":"Point","coordinates":[16.38086540601272,48.21890436107006]},"geometry_name":"SHAPE","properties":{"OBJECTID":1548306,"NAME":"Taborstrasse","ADRESSE":"2., Taborstrasse 40 ","WEITERE_INFORMATIONEN":"http://www.wien.gv.at/ikt/egov/wlan/index.html","ANBIETER":"http://www.wien.gv.at/ikt/egov/wlan/wlan-multimediastationen.html","SE_ANNO_CAD_DATA":null}},{"type":"Feature","id":"WLANWIENATOGD.1548307","geometry":{"type":"Point","coordinates":[16.384306886384646,48.21463148693494]},"geometry_name":"SHAPE","properties":{"OBJECTID":1548307,"NAME":"Nestroyplatz","ADRESSE":"2., Nestroyplatz ","WEITERE_INFORMATIONEN":"http://www.wien.gv.at/ikt/egov/wlan/index.html","ANBIETER":"http://www.wien.gv.at/ikt/egov/wlan/wlan-multimediastationen.html","SE_ANNO_CAD_DATA":null}},{"type":"Feature","id":"WLANWIENATOGD.1548308","geometry":{"type":"Point","coordinates":[16.40186964828711,48.22195897090592]},"geometry_name":"SHAPE","properties":{"OBJECTID":1548308,"NAME":"Vorgartenmarkt","ADRESSE":"2., Vorgartenmarkt ","WEITERE_INFORMATIONEN":"http://www.wien.gv.at/ikt/egov/wlan/index.html","ANBIETER":"http://www.wien.gv.at/ikt/egov/wlan/wlan-multimediastationen.html","SE_ANNO_CAD_DATA":null}},{"type":"Feature","id":"WLANWIENATOGD.1548309","geometry":{"type":"Point","coordinates":[16.373684797949334,48.186442128403186]},"geometry_name":"SHAPE","properties":{"OBJECTID":1548309,"NAME":"Suedtiroler Platz","ADRESSE":"4., Suedtiroler Platz ","WEITERE_INFORMATIONEN":"http://www.wien.gv.at/ikt/egov/wlan/index.html","ANBIETER":"http://www.wien.gv.at/ikt/egov/wlan/wlan-multimediastationen.html","SE_ANNO_CAD_DATA":null}},{"type":"Feature","id":"WLANWIENATOGD.1548310","geometry":{"type":"Point","coordinates":[16.338708784444645,48.22653189992177]},"geometry_name":"SHAPE","properties":{"OBJECTID":1548310,"NAME":"Schubertpark","ADRESSE":"18., Schubertpark ","WEITERE_INFORMATIONEN":"http://www.wien.gv.at/ikt/egov/wlan/index.html","ANBIETER":"http://www.wien.gv.at/ikt/egov/wlan/wlan-multimediastationen.html","SE_ANNO_CAD_DATA":null}},{"type":"Feature","id":"WLANWIENATOGD.1548312","geometry":{"type":"Point","coordinates":[16.348645009088315,48.20797371717962]},"geometry_name":"SHAPE","properties":{"OBJECTID":1548312,"NAME":"Pfeilgasse 1","ADRESSE":"8., Pfeilgasse 1 ","WEITERE_INFORMATIONEN":"http://www.wien.gv.at/ikt/egov/wlan/index.html","ANBIETER":"http://www.wien.gv.at/ikt/egov/wlan/wlan-multimediastationen.html","SE_ANNO_CAD_DATA":null}},{"type":"Feature","id":"WLANWIENATOGD.1548313","geometry":{"type":"Point","coordinates":[16.352429310535683,48.2291417388121]},"geometry_name":"SHAPE","properties":{"OBJECTID":1548313,"NAME":"Helene Deutsch Park","ADRESSE":"9., Helene Deutsch Park ","WEITERE_INFORMATIONEN":"http://www.wien.gv.at/ikt/egov/wlan/index.html","ANBIETER":"http://www.wien.gv.at/ikt/egov/wlan/wlan-multimediastationen.html","SE_ANNO_CAD_DATA":null}},{"type":"Feature","id":"WLANWIENATOGD.1548314","geometry":{"type":"Point","coordinates":[16.34323443588726,48.21690262907541]},"geometry_name":"SHAPE","properties":{"OBJECTID":1548314,"NAME":"Heinz Heger Park","ADRESSE":"9., Zimmermannplatz 1 ","WEITERE_INFORMATIONEN":"http://www.wien.gv.at/ikt/egov/wlan/index.html","ANBIETER":"http://www.wien.gv.at/ikt/egov/wlan/wlan-multimediastationen.html","SE_ANNO_CAD_DATA":null}},{"type":"Feature","id":"WLANWIENATOGD.1548315","geometry":{"type":"Point","coordinates":[16.50078320906409,48.227066671898164]},"geometry_name":"SHAPE","properties":{"OBJECTID":1548315,"NAME":"Yella-Hertzka-Park 1","ADRESSE":"22., Sonnenallee 48 ","WEITERE_INFORMATIONEN":"http://www.wien.gv.at/ikt/egov/wlan/index.html","ANBIETER":"http://www.wien.gv.at/ikt/egov/wlan/wlan-multimediastationen.html","SE_ANNO_CAD_DATA":null}},{"type":"Feature","id":"WLANWIENATOGD.1548316","geometry":{"type":"Point","coordinates":[16.335420591879608,48.18494025944031]},"geometry_name":"SHAPE","properties":{"OBJECTID":1548316,"NAME":"Bruno Pittermann Platz","ADRESSE":"12., Bruno Pittermann Platz ","WEITERE_INFORMATIONEN":"http://www.wien.gv.at/ikt/egov/wlan/index.html","ANBIETER":"http://www.wien.gv.at/ikt/egov/wlan/wlan-multimediastationen.html","SE_ANNO_CAD_DATA":null}},{"type":"Feature","id":"WLANWIENATOGD.1548317","geometry":{"type":"Point","coordinates":[16.32973479871071,48.173399462619635]},"geometry_name":"SHAPE","properties":{"OBJECTID":1548317,"NAME":"Theodor Koerner Park","ADRESSE":"12., Schedifkaplatz ","WEITERE_INFORMATIONEN":"http://www.wien.gv.at/ikt/egov/wlan/index.html","ANBIETER":"http://www.wien.gv.at/ikt/egov/wlan/wlan-multimediastationen.html","SE_ANNO_CAD_DATA":null}},{"type":"Feature","id":"WLANWIENATOGD.1548318","geometry":{"type":"Point","coordinates":[16.326227063168684,48.215264589613156]},"geometry_name":"SHAPE","properties":{"OBJECTID":1548318,"NAME":"Lorenz Bayer Park","ADRESSE":"17., Lorenz Bayer Platz 17 ","WEITERE_INFORMATIONEN":"http://www.wien.gv.at/ikt/egov/wlan/index.html","ANBIETER":"http://www.wien.gv.at/ikt/egov/wlan/wlan-multimediastationen.html","SE_ANNO_CAD_DATA":null}},{"type":"Feature","id":"WLANWIENATOGD.1548319","geometry":{"type":"Point","coordinates":[16.370398116786266,48.23515428342898]},"geometry_name":"SHAPE","properties":{"OBJECTID":1548319,"NAME":"Hugo Gottschlich Park","ADRESSE":"20., Jaegerstrasse 60 ","WEITERE_INFORMATIONEN":"http://www.wien.gv.at/ikt/egov/wlan/index.html","ANBIETER":"http://www.wien.gv.at/ikt/egov/wlan/wlan-multimediastationen.html","SE_ANNO_CAD_DATA":null}},{"type":"Feature","id":"WLANWIENATOGD.1548320","geometry":{"type":"Point","coordinates":[16.387457294640726,48.26203543482436]},"geometry_name":"SHAPE","properties":{"OBJECTID":1548320,"NAME":"Karl Seitz Platz","ADRESSE":"21., Jedleseer Strasse 73 ","WEITERE_INFORMATIONEN":"http://www.wien.gv.at/ikt/egov/wlan/index.html","ANBIETER":"http://www.wien.gv.at/ikt/egov/wlan/wlan-multimediastationen.html","SE_ANNO_CAD_DATA":null}},{"type":"Feature","id":"WLANWIENATOGD.1548321","geometry":{"type":"Point","coordinates":[16.449048833674567,48.26835145340254]},"geometry_name":"SHAPE","properties":{"OBJECTID":1548321,"NAME":"Hedwig und Johann Schneider Park","ADRESSE":"21., Wassermanngasse ","WEITERE_INFORMATIONEN":"http://www.wien.gv.at/ikt/egov/wlan/index.html","ANBIETER":"http://www.wien.gv.at/ikt/egov/wlan/wlan-multimediastationen.html","SE_ANNO_CAD_DATA":null}},{"type":"Feature","id":"WLANWIENATOGD.1548322","geometry":{"type":"Point","coordinates":[16.448106885006307,48.27015323096252]},"geometry_name":"SHAPE","properties":{"OBJECTID":1548322,"NAME":"Hedwig und Johann Schneider Park","ADRESSE":"21., Kuerschnerstrasse 5 ","WEITERE_INFORMATIONEN":"http://www.wien.gv.at/ikt/egov/wlan/index.html","ANBIETER":"http://www.wien.gv.at/ikt/egov/wlan/wlan-multimediastationen.html","SE_ANNO_CAD_DATA":null}},{"type":"Feature","id":"WLANWIENATOGD.1548323","geometry":{"type":"Point","coordinates":[16.421040031692954,48.16989330564962]},"geometry_name":"SHAPE","properties":{"OBJECTID":1548323,"NAME":"Simmeringer Platz","ADRESSE":"11., Simmeringer Hauptstrasse 153 ","WEITERE_INFORMATIONEN":"http://www.wien.gv.at/ikt/egov/wlan/index.html","ANBIETER":"http://www.wien.gv.at/ikt/egov/wlan/wlan-multimediastationen.html","SE_ANNO_CAD_DATA":null}},{"type":"Feature","id":"WLANWIENATOGD.1548325","geometry":{"type":"Point","coordinates":[16.40018597399228,48.255669840578136]},"geometry_name":"SHAPE","properties":{"OBJECTID":1548325,"NAME":"Ubahn Station Floridsdorf","ADRESSE":"21., Franklinstrasse # Rechte Nordbahngasse ","WEITERE_INFORMATIONEN":"http://www.wien.gv.at/ikt/egov/wlan/index.html","ANBIETER":"http://www.wien.gv.at/ikt/egov/wlan/wlan-multimediastationen.html","SE_ANNO_CAD_DATA":null}},{"type":"Feature","id":"WLANWIENATOGD.1548326","geometry":{"type":"Point","coordinates":[16.507774000166663,48.22595011389194]},"geometry_name":"SHAPE","properties":{"OBJECTID":1548326,"NAME":"Seestadtpark","ADRESSE":"22., Janis Joplin Promenade ","WEITERE_INFORMATIONEN":"http://www.wien.gv.at/ikt/egov/wlan/index.html","ANBIETER":"http://www.wien.gv.at/ikt/egov/wlan/wlan-multimediastationen.html","SE_ANNO_CAD_DATA":null}},{"type":"Feature","id":"WLANWIENATOGD.1548327","geometry":{"type":"Point","coordinates":[16.497432503951554,48.22502392846402]},"geometry_name":"SHAPE","properties":{"OBJECTID":1548327,"NAME":"Maria-Tusch-Straße","ADRESSE":"22., Maria Tusch Strasse 5 ","WEITERE_INFORMATIONEN":"http://www.wien.gv.at/ikt/egov/wlan/index.html","ANBIETER":"http://www.wien.gv.at/ikt/egov/wlan/wlan-multimediastationen.html","SE_ANNO_CAD_DATA":null}},{"type":"Feature","id":"WLANWIENATOGD.1548328","geometry":{"type":"Point","coordinates":[16.34950114917063,48.224626841745916]},"geometry_name":"SHAPE","properties":{"OBJECTID":1548328,"NAME":"Volksoper","ADRESSE":"9., Waehringer Guertel 100 ","WEITERE_INFORMATIONEN":"http://www.wien.gv.at/ikt/egov/wlan/index.html","ANBIETER":"http://www.wien.gv.at/ikt/egov/wlan/wlan-multimediastationen.html","SE_ANNO_CAD_DATA":null}},{"type":"Feature","id":"WLANWIENATOGD.1548329","geometry":{"type":"Point","coordinates":[16.34909717486639,48.22463724121045]},"geometry_name":"SHAPE","properties":{"OBJECTID":1548329,"NAME":"Volksoper","ADRESSE":"18., Waehringer Guertel 87 ","WEITERE_INFORMATIONEN":"http://www.wien.gv.at/ikt/egov/wlan/index.html","ANBIETER":"http://www.wien.gv.at/ikt/egov/wlan/wlan-multimediastationen.html","SE_ANNO_CAD_DATA":null}},{"type":"Feature","id":"WLANWIENATOGD.1548330","geometry":{"type":"Point","coordinates":[16.375802904464752,48.18407589377524]},"geometry_name":"SHAPE","properties":{"OBJECTID":1548330,"NAME":"Sonnwendgasse HP","ADRESSE":"10., Am Hauptbahnhof 2 ","WEITERE_INFORMATIONEN":"http://www.wien.gv.at/ikt/egov/wlan/index.html","ANBIETER":"http://www.wien.gv.at/ikt/egov/wlan/wlan-multimediastationen.html","SE_ANNO_CAD_DATA":null}},{"type":"Feature","id":"WLANWIENATOGD.1548331","geometry":{"type":"Point","coordinates":[16.377833856902654,48.18420008302635]},"geometry_name":"SHAPE","properties":{"OBJECTID":1548331,"NAME":"Gertrude-Froehlich-Sandner-Strasse","ADRESSE":"10., Gerhard Bronner Strasse 11 ","WEITERE_INFORMATIONEN":"http://www.wien.gv.at/ikt/egov/wlan/index.html","ANBIETER":"http://www.wien.gv.at/ikt/egov/wlan/wlan-multimediastationen.html","SE_ANNO_CAD_DATA":null}},{"type":"Feature","id":"WLANWIENATOGD.1548332","geometry":{"type":"Point","coordinates":[16.367138324694505,48.20085211676708]},"geometry_name":"SHAPE","properties":{"OBJECTID":1548332,"NAME":"Esperantopark","ADRESSE":"1., Friedrichstrasse 6 ","WEITERE_INFORMATIONEN":"http://www.wien.gv.at/ikt/egov/wlan/index.html","ANBIETER":"http://www.wien.gv.at/ikt/egov/wlan/wlan-multimediastationen.html","SE_ANNO_CAD_DATA":null}},{"type":"Feature","id":"WLANWIENATOGD.1548333","geometry":{"type":"Point","coordinates":[16.367086436666238,48.20032997813551]},"geometry_name":"SHAPE","properties":{"OBJECTID":1548333,"NAME":"Rosa-Mayreder-Park","ADRESSE":"1., Karlsplatz 12 (1) ","WEITERE_INFORMATIONEN":"http://www.wien.gv.at/ikt/egov/wlan/index.html","ANBIETER":"http://www.wien.gv.at/ikt/egov/wlan/wlan-multimediastationen.html","SE_ANNO_CAD_DATA":null}},{"type":"Feature","id":"WLANWIENATOGD.1548334","geometry":{"type":"Point","coordinates":[16.353116917642602,48.19061218075906]},"geometry_name":"SHAPE","properties":{"OBJECTID":1548334,"NAME":"Wientalterrasse","ADRESSE":"5., Rechte Wienzeile 111 ","WEITERE_INFORMATIONEN":"http://www.wien.gv.at/ikt/egov/wlan/index.html","ANBIETER":"http://www.wien.gv.at/ikt/egov/wlan/wlan-multimediastationen.html","SE_ANNO_CAD_DATA":null}},{"type":"Feature","id":"WLANWIENATOGD.1548335","geometry":{"type":"Point","coordinates":[16.318166557075266,48.21449331760964]},"geometry_name":"SHAPE","properties":{"OBJECTID":1548335,"NAME":"Familienplatz","ADRESSE":"16., Familienplatz 5 ","WEITERE_INFORMATIONEN":"http://www.wien.gv.at/ikt/egov/wlan/index.html","ANBIETER":"http://www.wien.gv.at/ikt/egov/wlan/wlan-multimediastationen.html","SE_ANNO_CAD_DATA":null}},{"type":"Feature","id":"WLANWIENATOGD.1548336","geometry":{"type":"Point","coordinates":[16.355999498497802,48.2105983561957]},"geometry_name":"SHAPE","properties":{"OBJECTID":1548336,"NAME":"Friedrich-Schmidt-Platz","ADRESSE":"1., Friedrich Schmidt Platz 1 ","WEITERE_INFORMATIONEN":"http://www.wien.gv.at/ikt/egov/wlan/index.html","ANBIETER":"http://www.wien.gv.at/ikt/egov/wlan/wlan-multimediastationen.html","SE_ANNO_CAD_DATA":null}},{"type":"Feature","id":"WLANWIENATOGD.1548337","geometry":{"type":"Point","coordinates":[16.3427499969643,48.2557781820014]},"geometry_name":"SHAPE","properties":{"OBJECTID":1548337,"NAME":"Grinzing","ADRESSE":"19., Cobenzlgasse 2 ","WEITERE_INFORMATIONEN":"http://www.wien.gv.at/ikt/egov/wlan/index.html","ANBIETER":"http://www.wien.gv.at/ikt/egov/wlan/wlan-multimediastationen.html","SE_ANNO_CAD_DATA":null}},{"type":"Feature","id":"WLANWIENATOGD.1548338","geometry":{"type":"Point","coordinates":[16.364547298140284,48.248738998055764]},"geometry_name":"SHAPE","properties":{"OBJECTID":1548338,"NAME":"Boschstrasse 5","ADRESSE":"19., Boschstrasse 5 ","WEITERE_INFORMATIONEN":"http://www.wien.gv.at/ikt/egov/wlan/index.html","ANBIETER":"http://www.wien.gv.at/ikt/egov/wlan/wlan-multimediastationen.html","SE_ANNO_CAD_DATA":null}},{"type":"Feature","id":"WLANWIENATOGD.1548339","geometry":{"type":"Point","coordinates":[16.364962801342827,48.24978800746437]},"geometry_name":"SHAPE","properties":{"OBJECTID":1548339,"NAME":"Boschstrasse 13","ADRESSE":"19., Boschstrasse 13 ","WEITERE_INFORMATIONEN":"http://www.wien.gv.at/ikt/egov/wlan/index.html","ANBIETER":"http://www.wien.gv.at/ikt/egov/wlan/wlan-multimediastationen.html","SE_ANNO_CAD_DATA":null}},{"type":"Feature","id":"WLANWIENATOGD.1548340","geometry":{"type":"Point","coordinates":[16.320931643222107,48.26412900180782]},"geometry_name":"SHAPE","properties":{"OBJECTID":1548340,"NAME":"Am Cobenzl","ADRESSE":"19., Cobenzl geg 96 ","WEITERE_INFORMATIONEN":"http://www.wien.gv.at/ikt/egov/wlan/index.html","ANBIETER":"http://www.wien.gv.at/ikt/egov/wlan/wlan-multimediastationen.html","SE_ANNO_CAD_DATA":null}},{"type":"Feature","id":"WLANWIENATOGD.1548341","geometry":{"type":"Point","coordinates":[16.336599687131212,48.24323811048407]},"geometry_name":"SHAPE","properties":{"OBJECTID":1548341,"NAME":"Weinberggasse geg 28","ADRESSE":"19., Weinberggasse geg 28 ","WEITERE_INFORMATIONEN":"http://www.wien.gv.at/ikt/egov/wlan/index.html","ANBIETER":"http://www.wien.gv.at/ikt/egov/wlan/wlan-multimediastationen.html","SE_ANNO_CAD_DATA":null}},{"type":"Feature","id":"WLANWIENATOGD.1548342","geometry":{"type":"Point","coordinates":[16.336940459419814,48.274788771320814]},"geometry_name":"SHAPE","properties":{"OBJECTID":1548342,"NAME":"Am Kahlenberg","ADRESSE":"19., Am Kahlenberg ","WEITERE_INFORMATIONEN":"http://www.wien.gv.at/ikt/egov/wlan/index.html","ANBIETER":"http://www.wien.gv.at/ikt/egov/wlan/wlan-multimediastationen.html","SE_ANNO_CAD_DATA":null}},{"type":"Feature","id":"WLANWIENATOGD.1548343","geometry":{"type":"Point","coordinates":[16.343717109802842,48.24544996591674]},"geometry_name":"SHAPE","properties":{"OBJECTID":1548343,"NAME":"Strauss Lanner Park","ADRESSE":"19., Strauss Lanner Park ","WEITERE_INFORMATIONEN":"http://www.wien.gv.at/ikt/egov/wlan/index.html","ANBIETER":"http://www.wien.gv.at/ikt/egov/wlan/wlan-multimediastationen.html","SE_ANNO_CAD_DATA":null}},{"type":"Feature","id":"WLANWIENATOGD.1548344","geometry":{"type":"Point","coordinates":[16.333997958261314,48.240649242861615]},"geometry_name":"SHAPE","properties":{"OBJECTID":1548344,"NAME":"Hugo Wolf Park","ADRESSE":"19., Krottenbachstrasse 68 ","WEITERE_INFORMATIONEN":"http://www.wien.gv.at/ikt/egov/wlan/index.html","ANBIETER":"http://www.wien.gv.at/ikt/egov/wlan/wlan-multimediastationen.html","SE_ANNO_CAD_DATA":null}},{"type":"Feature","id":"WLANWIENATOGD.1548345","geometry":{"type":"Point","coordinates":[16.33401714850232,48.238807990267475]},"geometry_name":"SHAPE","properties":{"OBJECTID":1548345,"NAME":"Hugo Wolf Park","ADRESSE":"19., Hartaeckerstrasse 43 ","WEITERE_INFORMATIONEN":"http://www.wien.gv.at/ikt/egov/wlan/index.html","ANBIETER":"http://www.wien.gv.at/ikt/egov/wlan/wlan-multimediastationen.html","SE_ANNO_CAD_DATA":null}},{"type":"Feature","id":"WLANWIENATOGD.1548346","geometry":{"type":"Point","coordinates":[16.334375710086942,48.23703023403206]},"geometry_name":"SHAPE","properties":{"OBJECTID":1548346,"NAME":"Peter Jordan Strasse 65","ADRESSE":"19., Peter Jordan Strasse 65 ","WEITERE_INFORMATIONEN":"http://www.wien.gv.at/ikt/egov/wlan/index.html","ANBIETER":"http://www.wien.gv.at/ikt/egov/wlan/wlan-multimediastationen.html","SE_ANNO_CAD_DATA":null}},{"type":"Feature","id":"WLANWIENATOGD.1548347","geometry":{"type":"Point","coordinates":[16.337935852058425,48.237041652040645]},"geometry_name":"SHAPE","properties":{"OBJECTID":1548347,"NAME":"Linnéplatz","ADRESSE":"19., Gregor Mendel Strasse 33 ","WEITERE_INFORMATIONEN":"http://www.wien.gv.at/ikt/egov/wlan/index.html","ANBIETER":"http://www.wien.gv.at/ikt/egov/wlan/wlan-multimediastationen.html","SE_ANNO_CAD_DATA":null}},{"type":"Feature","id":"WLANWIENATOGD.1548348","geometry":{"type":"Point","coordinates":[16.367485738830922,48.24740830622093]},"geometry_name":"SHAPE","properties":{"OBJECTID":1548348,"NAME":"Muthgasse 22","ADRESSE":"19., Muthgasse 22 ","WEITERE_INFORMATIONEN":"http://www.wien.gv.at/ikt/egov/wlan/index.html","ANBIETER":"http://www.wien.gv.at/ikt/egov/wlan/wlan-multimediastationen.html","SE_ANNO_CAD_DATA":null}},{"type":"Feature","id":"WLANWIENATOGD.1548349","geometry":{"type":"Point","coordinates":[16.367100054995795,48.26018431075827]},"geometry_name":"SHAPE","properties":{"OBJECTID":1548349,"NAME":"Nussdorfer Platz ","ADRESSE":"19., Nussdorfer Platz 8 ","WEITERE_INFORMATIONEN":"http://www.wien.gv.at/ikt/egov/wlan/index.html","ANBIETER":"http://www.wien.gv.at/ikt/egov/wlan/wlan-multimediastationen.html","SE_ANNO_CAD_DATA":null}},{"type":"Feature","id":"WLANWIENATOGD.1548350","geometry":{"type":"Point","coordinates":[16.367229181850192,48.23510148839289]},"geometry_name":"SHAPE","properties":{"OBJECTID":1548350,"NAME":"Leipziger Platz","ADRESSE":"20., Leipziger Strasse 20 ","WEITERE_INFORMATIONEN":"http://www.wien.gv.at/ikt/egov/wlan/index.html","ANBIETER":"http://www.wien.gv.at/ikt/egov/wlan/wlan-multimediastationen.html","SE_ANNO_CAD_DATA":null}},{"type":"Feature","id":"WLANWIENATOGD.1548351","geometry":{"type":"Point","coordinates":[16.380544237817865,48.24483495506391]},"geometry_name":"SHAPE","properties":{"OBJECTID":1548351,"NAME":"Friedrich Engels Platz","ADRESSE":"20., Friedrich Engels Platz ","WEITERE_INFORMATIONEN":"http://www.wien.gv.at/ikt/egov/wlan/index.html","ANBIETER":"http://www.wien.gv.at/ikt/egov/wlan/wlan-multimediastationen.html","SE_ANNO_CAD_DATA":null}},{"type":"Feature","id":"WLANWIENATOGD.1548352","geometry":{"type":"Point","coordinates":[16.379252215095228,48.243692601998454]},"geometry_name":"SHAPE","properties":{"OBJECTID":1548352,"NAME":"Friedrich Engels Platz","ADRESSE":"20., Marchfeldstrasse 27 ","WEITERE_INFORMATIONEN":"http://www.wien.gv.at/ikt/egov/wlan/index.html","ANBIETER":"http://www.wien.gv.at/ikt/egov/wlan/wlan-multimediastationen.html","SE_ANNO_CAD_DATA":null}},{"type":"Feature","id":"WLANWIENATOGD.1548353","geometry":{"type":"Point","coordinates":[16.386011086569134,48.2346815288196]},"geometry_name":"SHAPE","properties":{"OBJECTID":1548353,"NAME":"Mortaraplatz ","ADRESSE":"20., Mortaraplatz 3 ","WEITERE_INFORMATIONEN":"http://www.wien.gv.at/ikt/egov/wlan/index.html","ANBIETER":"http://www.wien.gv.at/ikt/egov/wlan/wlan-multimediastationen.html","SE_ANNO_CAD_DATA":null}},{"type":"Feature","id":"WLANWIENATOGD.1548354","geometry":{"type":"Point","coordinates":[16.376925052282576,48.23156693516352]},"geometry_name":"SHAPE","properties":{"OBJECTID":1548354,"NAME":"Sachsenplatz","ADRESSE":"20., Sachsenplatz 18 ","WEITERE_INFORMATIONEN":"http://www.wien.gv.at/ikt/egov/wlan/index.html","ANBIETER":"http://www.wien.gv.at/ikt/egov/wlan/wlan-multimediastationen.html","SE_ANNO_CAD_DATA":null}},{"type":"Feature","id":"WLANWIENATOGD.1548355","geometry":{"type":"Point","coordinates":[16.37515638769277,48.24513834506634]},"geometry_name":"SHAPE","properties":{"OBJECTID":1548355,"NAME":"Forsthauspark","ADRESSE":"20., Forsthausgasse geg 15 ","WEITERE_INFORMATIONEN":"http://www.wien.gv.at/ikt/egov/wlan/index.html","ANBIETER":"http://www.wien.gv.at/ikt/egov/wlan/wlan-multimediastationen.html","SE_ANNO_CAD_DATA":null}},{"type":"Feature","id":"WLANWIENATOGD.1548356","geometry":{"type":"Point","coordinates":[16.38585097123587,48.237573942868586]},"geometry_name":"SHAPE","properties":{"OBJECTID":1548356,"NAME":"Allerheiligenplatz","ADRESSE":"20., Allerheiligenplatz 17-18 ","WEITERE_INFORMATIONEN":"http://www.wien.gv.at/ikt/egov/wlan/index.html","ANBIETER":"http://www.wien.gv.at/ikt/egov/wlan/wlan-multimediastationen.html","SE_ANNO_CAD_DATA":null}},{"type":"Feature","id":"WLANWIENATOGD.1548357","geometry":{"type":"Point","coordinates":[16.377306309207896,48.24696972838498]},"geometry_name":"SHAPE","properties":{"OBJECTID":1548357,"NAME":"Kapaunplatz","ADRESSE":"20., Kapaunplatz ","WEITERE_INFORMATIONEN":"http://www.wien.gv.at/ikt/egov/wlan/index.html","ANBIETER":"http://www.wien.gv.at/ikt/egov/wlan/wlan-multimediastationen.html","SE_ANNO_CAD_DATA":null}},{"type":"Feature","id":"WLANWIENATOGD.1548358","geometry":{"type":"Point","coordinates":[16.369591036988986,48.225618436437614]},"geometry_name":"SHAPE","properties":{"OBJECTID":1548358,"NAME":"Gaussplatz","ADRESSE":"20., Gaussplatz 3 ","WEITERE_INFORMATIONEN":"http://www.wien.gv.at/ikt/egov/wlan/index.html","ANBIETER":"http://www.wien.gv.at/ikt/egov/wlan/wlan-multimediastationen.html","SE_ANNO_CAD_DATA":null}},{"type":"Feature","id":"WLANWIENATOGD.1548359","geometry":{"type":"Point","coordinates":[16.3587153570514,48.21129194956648]},"geometry_name":"SHAPE","properties":{"OBJECTID":1548359,"NAME":"Rathauspl01","ADRESSE":"1., Rathausplatz (1) ","WEITERE_INFORMATIONEN":"http://www.wien.gv.at/ikt/egov/wlan/index.html","ANBIETER":"http://www.wien.gv.at/ikt/egov/wlan/wlan-multimediastationen.html","SE_ANNO_CAD_DATA":null}},{"type":"Feature","id":"WLANWIENATOGD.1548360","geometry":{"type":"Point","coordinates":[16.359095584957355,48.210957507831054]},"geometry_name":"SHAPE","properties":{"OBJECTID":1548360,"NAME":"Rathauspl02","ADRESSE":"1., Rathausplatz (2) ","WEITERE_INFORMATIONEN":"http://www.wien.gv.at/ikt/egov/wlan/index.html","ANBIETER":"http://www.wien.gv.at/ikt/egov/wlan/wlan-multimediastationen.html","SE_ANNO_CAD_DATA":null}},{"type":"Feature","id":"WLANWIENATOGD.1548361","geometry":{"type":"Point","coordinates":[16.359481573894055,48.210727420426146]},"geometry_name":"SHAPE","properties":{"OBJECTID":1548361,"NAME":"Rathauspl04","ADRESSE":"1., Rathausplatz (4) ","WEITERE_INFORMATIONEN":"http://www.wien.gv.at/ikt/egov/wlan/index.html","ANBIETER":"http://www.wien.gv.at/ikt/egov/wlan/wlan-multimediastationen.html","SE_ANNO_CAD_DATA":null}},{"type":"Feature","id":"WLANWIENATOGD.1548387","geometry":{"type":"Point","coordinates":[16.330161820936237,48.17515458614981]},"geometry_name":"SHAPE","properties":{"OBJECTID":1548387,"NAME":"Meidlinger Hauptstrasse 84","ADRESSE":"12., Meidlinger Hauptstrasse 82 ","WEITERE_INFORMATIONEN":"http://www.wien.gv.at/ikt/egov/wlan/index.html","ANBIETER":"http://www.wien.gv.at/ikt/egov/wlan/wlan-multimediastationen.html","SE_ANNO_CAD_DATA":null}},{"type":"Feature","id":"WLANWIENATOGD.1548388","geometry":{"type":"Point","coordinates":[16.32979134956633,48.17422709388647]},"geometry_name":"SHAPE","properties":{"OBJECTID":1548388,"NAME":"Meidlinger Hauptstrasse ","ADRESSE":"12., Philadelphiabruecke ","WEITERE_INFORMATIONEN":"http://www.wien.gv.at/ikt/egov/wlan/index.html","ANBIETER":"http://www.wien.gv.at/ikt/egov/wlan/wlan-multimediastationen.html","SE_ANNO_CAD_DATA":null}},{"type":"Feature","id":"WLANWIENATOGD.1548389","geometry":{"type":"Point","coordinates":[16.304104448813057,48.18745339057159]},"geometry_name":"SHAPE","properties":{"OBJECTID":1548389,"NAME":"Kennedybruecke","ADRESSE":"13., Kennedybruecke (1) ","WEITERE_INFORMATIONEN":"http://www.wien.gv.at/ikt/egov/wlan/index.html","ANBIETER":"http://www.wien.gv.at/ikt/egov/wlan/wlan-multimediastationen.html","SE_ANNO_CAD_DATA":null}},{"type":"Feature","id":"WLANWIENATOGD.1548390","geometry":{"type":"Point","coordinates":[16.303356352374248,48.18774805858923]},"geometry_name":"SHAPE","properties":{"OBJECTID":1548390,"NAME":"Kennedybruecke","ADRESSE":"13., Kennedybruecke (2) ","WEITERE_INFORMATIONEN":"http://www.wien.gv.at/ikt/egov/wlan/index.html","ANBIETER":"http://www.wien.gv.at/ikt/egov/wlan/wlan-multimediastationen.html","SE_ANNO_CAD_DATA":null}},{"type":"Feature","id":"WLANWIENATOGD.1548391","geometry":{"type":"Point","coordinates":[16.301543417974386,48.185955271673166]},"geometry_name":"SHAPE","properties":{"OBJECTID":1548391,"NAME":"Am Platz","ADRESSE":"13., Am Platz 9  ","WEITERE_INFORMATIONEN":"http://www.wien.gv.at/ikt/egov/wlan/index.html","ANBIETER":"http://www.wien.gv.at/ikt/egov/wlan/wlan-multimediastationen.html","SE_ANNO_CAD_DATA":null}},{"type":"Feature","id":"WLANWIENATOGD.1548392","geometry":{"type":"Point","coordinates":[16.31316499552715,48.187039993245975]},"geometry_name":"SHAPE","properties":{"OBJECTID":1548392,"NAME":"Schlossstrasse Schlossbruecke","ADRESSE":"13., Schoenbrunner Schlossbruecke (2) ","WEITERE_INFORMATIONEN":"http://www.wien.gv.at/ikt/egov/wlan/index.html","ANBIETER":"http://www.wien.gv.at/ikt/egov/wlan/wlan-multimediastationen.html","SE_ANNO_CAD_DATA":null}},{"type":"Feature","id":"WLANWIENATOGD.1548362","geometry":{"type":"Point","coordinates":[16.360113651607215,48.210642610156235]},"geometry_name":"SHAPE","properties":{"OBJECTID":1548362,"NAME":"Rathauspl05","ADRESSE":"1., Rathausplatz (5) ","WEITERE_INFORMATIONEN":"http://www.wien.gv.at/ikt/egov/wlan/index.html","ANBIETER":"http://www.wien.gv.at/ikt/egov/wlan/wlan-multimediastationen.html","SE_ANNO_CAD_DATA":null}},{"type":"Feature","id":"WLANWIENATOGD.1548363","geometry":{"type":"Point","coordinates":[16.359062785872442,48.2104268272529]},"geometry_name":"SHAPE","properties":{"OBJECTID":1548363,"NAME":"Rathauspl07","ADRESSE":"1., Rathausplatz (7) ","WEITERE_INFORMATIONEN":"http://www.wien.gv.at/ikt/egov/wlan/index.html","ANBIETER":"http://www.wien.gv.at/ikt/egov/wlan/wlan-multimediastationen.html","SE_ANNO_CAD_DATA":null}},{"type":"Feature","id":"WLANWIENATOGD.1548364","geometry":{"type":"Point","coordinates":[16.35905207650271,48.21042254594732]},"geometry_name":"SHAPE","properties":{"OBJECTID":1548364,"NAME":"Rathauspl08","ADRESSE":"1., Rathausplatz (8) ","WEITERE_INFORMATIONEN":"http://www.wien.gv.at/ikt/egov/wlan/index.html","ANBIETER":"http://www.wien.gv.at/ikt/egov/wlan/wlan-multimediastationen.html","SE_ANNO_CAD_DATA":null}},{"type":"Feature","id":"WLANWIENATOGD.1548365","geometry":{"type":"Point","coordinates":[16.358892779587947,48.210268941024275]},"geometry_name":"SHAPE","properties":{"OBJECTID":1548365,"NAME":"Rathauspl09","ADRESSE":"1., Rathausplatz (9) ","WEITERE_INFORMATIONEN":"http://www.wien.gv.at/ikt/egov/wlan/index.html","ANBIETER":"http://www.wien.gv.at/ikt/egov/wlan/wlan-multimediastationen.html","SE_ANNO_CAD_DATA":null}},{"type":"Feature","id":"WLANWIENATOGD.1548366","geometry":{"type":"Point","coordinates":[16.386461112657877,48.19424709741342]},"geometry_name":"SHAPE","properties":{"OBJECTID":1548366,"NAME":"Fasanplatz","ADRESSE":"3., Fasangasse geg 2 ","WEITERE_INFORMATIONEN":"http://www.wien.gv.at/ikt/egov/wlan/index.html","ANBIETER":"http://www.wien.gv.at/ikt/egov/wlan/wlan-multimediastationen.html","SE_ANNO_CAD_DATA":null}},{"type":"Feature","id":"WLANWIENATOGD.1548367","geometry":{"type":"Point","coordinates":[16.375354819326997,48.19100466024388]},"geometry_name":"SHAPE","properties":{"OBJECTID":1548367,"NAME":"St.-Elisabeth-Platz","ADRESSE":"4., Belvederegasse 20 ","WEITERE_INFORMATIONEN":"http://www.wien.gv.at/ikt/egov/wlan/index.html","ANBIETER":"http://www.wien.gv.at/ikt/egov/wlan/wlan-multimediastationen.html","SE_ANNO_CAD_DATA":null}},{"type":"Feature","id":"WLANWIENATOGD.1548368","geometry":{"type":"Point","coordinates":[16.36989495118133,48.194650635708086]},"geometry_name":"SHAPE","properties":{"OBJECTID":1548368,"NAME":"Favoritenstrasse MBA","ADRESSE":"4., Favoritenstrasse 18 ","WEITERE_INFORMATIONEN":"http://www.wien.gv.at/ikt/egov/wlan/index.html","ANBIETER":"http://www.wien.gv.at/ikt/egov/wlan/wlan-multimediastationen.html","SE_ANNO_CAD_DATA":null}},{"type":"Feature","id":"WLANWIENATOGD.1548369","geometry":{"type":"Point","coordinates":[16.365279643557034,48.19123428927583]},"geometry_name":"SHAPE","properties":{"OBJECTID":1548369,"NAME":"Rubenspark","ADRESSE":"4., Rubensgasse geg 7 ","WEITERE_INFORMATIONEN":"http://www.wien.gv.at/ikt/egov/wlan/index.html","ANBIETER":"http://www.wien.gv.at/ikt/egov/wlan/wlan-multimediastationen.html","SE_ANNO_CAD_DATA":null}},{"type":"Feature","id":"WLANWIENATOGD.1548370","geometry":{"type":"Point","coordinates":[16.38137367570801,48.18224828240382]},"geometry_name":"SHAPE","properties":{"OBJECTID":1548370,"NAME":"Helmut Zilk Park 2","ADRESSE":"10., Antonie Alt Gasse 1 ","WEITERE_INFORMATIONEN":"http://www.wien.gv.at/ikt/egov/wlan/index.html","ANBIETER":"http://www.wien.gv.at/ikt/egov/wlan/wlan-multimediastationen.html","SE_ANNO_CAD_DATA":null}},{"type":"Feature","id":"WLANWIENATOGD.1548371","geometry":{"type":"Point","coordinates":[16.4141550365822,48.17631467252588]},"geometry_name":"SHAPE","properties":{"OBJECTID":1548371,"NAME":"Enkplatz","ADRESSE":"11., Simmeringer Hauptstrasse geg 95 ","WEITERE_INFORMATIONEN":"http://www.wien.gv.at/ikt/egov/wlan/index.html","ANBIETER":"http://www.wien.gv.at/ikt/egov/wlan/wlan-multimediastationen.html","SE_ANNO_CAD_DATA":null}},{"type":"Feature","id":"WLANWIENATOGD.1548372","geometry":{"type":"Point","coordinates":[16.466037611469623,48.154234439863735]},"geometry_name":"SHAPE","properties":{"OBJECTID":1548372,"NAME":"Svetelskystrasse 11","ADRESSE":"11., Svetelskystrasse 11 ","WEITERE_INFORMATIONEN":"http://www.wien.gv.at/ikt/egov/wlan/index.html","ANBIETER":"http://www.wien.gv.at/ikt/egov/wlan/wlan-multimediastationen.html","SE_ANNO_CAD_DATA":null}},{"type":"Feature","id":"WLANWIENATOGD.1548373","geometry":{"type":"Point","coordinates":[16.410058322841692,48.173657644201406]},"geometry_name":"SHAPE","properties":{"OBJECTID":1548373,"NAME":"Herderpark","ADRESSE":"11., Zehetbauergasse 2 ","WEITERE_INFORMATIONEN":"http://www.wien.gv.at/ikt/egov/wlan/index.html","ANBIETER":"http://www.wien.gv.at/ikt/egov/wlan/wlan-multimediastationen.html","SE_ANNO_CAD_DATA":null}},{"type":"Feature","id":"WLANWIENATOGD.1548374","geometry":{"type":"Point","coordinates":[16.42496003762198,48.15785764517603]},"geometry_name":"SHAPE","properties":{"OBJECTID":1548374,"NAME":"Pretschgasse 1","ADRESSE":"11., Pretschgasse 1 ","WEITERE_INFORMATIONEN":"http://www.wien.gv.at/ikt/egov/wlan/index.html","ANBIETER":"http://www.wien.gv.at/ikt/egov/wlan/wlan-multimediastationen.html","SE_ANNO_CAD_DATA":null}},{"type":"Feature","id":"WLANWIENATOGD.1548375","geometry":{"type":"Point","coordinates":[16.41786248921644,48.185801029546276]},"geometry_name":"SHAPE","properties":{"OBJECTID":1548375,"NAME":"U3 Gasometer","ADRESSE":"11., Guglgasse 6 ","WEITERE_INFORMATIONEN":"http://www.wien.gv.at/ikt/egov/wlan/index.html","ANBIETER":"http://www.wien.gv.at/ikt/egov/wlan/wlan-multimediastationen.html","SE_ANNO_CAD_DATA":null}},{"type":"Feature","id":"WLANWIENATOGD.1548376","geometry":{"type":"Point","coordinates":[16.32632408416167,48.16402004955385]},"geometry_name":"SHAPE","properties":{"OBJECTID":1548376,"NAME":"Miep Gies Park ","ADRESSE":"12., Thorvaldsengasse 36 ","WEITERE_INFORMATIONEN":"http://www.wien.gv.at/ikt/egov/wlan/index.html","ANBIETER":"http://www.wien.gv.at/ikt/egov/wlan/wlan-multimediastationen.html","SE_ANNO_CAD_DATA":null}},{"type":"Feature","id":"WLANWIENATOGD.1548377","geometry":{"type":"Point","coordinates":[16.34473348659922,48.17385855865023]},"geometry_name":"SHAPE","properties":{"OBJECTID":1548377,"NAME":"Kundratstrasse 37-39","ADRESSE":"12., Kundratstrasse 37-39 ","WEITERE_INFORMATIONEN":"http://www.wien.gv.at/ikt/egov/wlan/index.html","ANBIETER":"http://www.wien.gv.at/ikt/egov/wlan/wlan-multimediastationen.html","SE_ANNO_CAD_DATA":null}},{"type":"Feature","id":"WLANWIENATOGD.1548378","geometry":{"type":"Point","coordinates":[16.337944738595393,48.178681325250466]},"geometry_name":"SHAPE","properties":{"OBJECTID":1548378,"NAME":"Wilhelmsdorfer Park","ADRESSE":"12., Flurschuetzstrasse geg 36 ","WEITERE_INFORMATIONEN":"http://www.wien.gv.at/ikt/egov/wlan/index.html","ANBIETER":"http://www.wien.gv.at/ikt/egov/wlan/wlan-multimediastationen.html","SE_ANNO_CAD_DATA":null}},{"type":"Feature","id":"WLANWIENATOGD.1548379","geometry":{"type":"Point","coordinates":[16.337604663692254,48.1872838816797]},"geometry_name":"SHAPE","properties":{"OBJECTID":1548379,"NAME":"Dunklergasse ","ADRESSE":"12., Dunklergasse 9 ","WEITERE_INFORMATIONEN":"http://www.wien.gv.at/ikt/egov/wlan/index.html","ANBIETER":"http://www.wien.gv.at/ikt/egov/wlan/wlan-multimediastationen.html","SE_ANNO_CAD_DATA":null}},{"type":"Feature","id":"WLANWIENATOGD.1548380","geometry":{"type":"Point","coordinates":[16.332815620551607,48.181288520057244]},"geometry_name":"SHAPE","properties":{"OBJECTID":1548380,"NAME":"Hermann Leopoldi Park","ADRESSE":"12., Grieshofgasse # Niederhofgasse ","WEITERE_INFORMATIONEN":"http://www.wien.gv.at/ikt/egov/wlan/index.html","ANBIETER":"http://www.wien.gv.at/ikt/egov/wlan/wlan-multimediastationen.html","SE_ANNO_CAD_DATA":null}},{"type":"Feature","id":"WLANWIENATOGD.1548381","geometry":{"type":"Point","coordinates":[16.329738190854535,48.183375497709186]},"geometry_name":"SHAPE","properties":{"OBJECTID":1548381,"NAME":"Meidlinger Hauptstrasse ","ADRESSE":"12., Meidlinger Hauptstrasse 1 ","WEITERE_INFORMATIONEN":"http://www.wien.gv.at/ikt/egov/wlan/index.html","ANBIETER":"http://www.wien.gv.at/ikt/egov/wlan/wlan-multimediastationen.html","SE_ANNO_CAD_DATA":null}},{"type":"Feature","id":"WLANWIENATOGD.1548382","geometry":{"type":"Point","coordinates":[16.32986464796091,48.182045628106536]},"geometry_name":"SHAPE","properties":{"OBJECTID":1548382,"NAME":"Meidlinger Hauptstrasse ","ADRESSE":"12., Meidlinger Hauptstrasse 8-10 (1) ","WEITERE_INFORMATIONEN":"http://www.wien.gv.at/ikt/egov/wlan/index.html","ANBIETER":"http://www.wien.gv.at/ikt/egov/wlan/wlan-multimediastationen.html","SE_ANNO_CAD_DATA":null}},{"type":"Feature","id":"WLANWIENATOGD.1548383","geometry":{"type":"Point","coordinates":[16.329760607523504,48.181690929923484]},"geometry_name":"SHAPE","properties":{"OBJECTID":1548383,"NAME":"Meidlinger Platzl","ADRESSE":"12., Meidlinger Hauptstrasse 8-10 (2) ","WEITERE_INFORMATIONEN":"http://www.wien.gv.at/ikt/egov/wlan/index.html","ANBIETER":"http://www.wien.gv.at/ikt/egov/wlan/wlan-multimediastationen.html","SE_ANNO_CAD_DATA":null}},{"type":"Feature","id":"WLANWIENATOGD.1548393","geometry":{"type":"Point","coordinates":[16.288264059270478,48.185658418861735]},"geometry_name":"SHAPE","properties":{"OBJECTID":1548393,"NAME":"Huegelpark","ADRESSE":"13., Fichtnergasse 14 ","WEITERE_INFORMATIONEN":"http://www.wien.gv.at/ikt/egov/wlan/index.html","ANBIETER":"http://www.wien.gv.at/ikt/egov/wlan/wlan-multimediastationen.html","SE_ANNO_CAD_DATA":null}},{"type":"Feature","id":"WLANWIENATOGD.1548394","geometry":{"type":"Point","coordinates":[16.201688805242686,48.22949687859091]},"geometry_name":"SHAPE","properties":{"OBJECTID":1548394,"NAME":"Hohe Wand Wiese","ADRESSE":"14., Mauerbachstrasse 174 ","WEITERE_INFORMATIONEN":"http://www.wien.gv.at/ikt/egov/wlan/index.html","ANBIETER":"http://www.wien.gv.at/ikt/egov/wlan/wlan-multimediastationen.html","SE_ANNO_CAD_DATA":null}},{"type":"Feature","id":"WLANWIENATOGD.1548395","geometry":{"type":"Point","coordinates":[16.286965605376686,48.19692905451363]},"geometry_name":"SHAPE","properties":{"OBJECTID":1548395,"NAME":"Huetteldorfer Strasse","ADRESSE":"14., Huetteldorfer Strasse 188 ","WEITERE_INFORMATIONEN":"http://www.wien.gv.at/ikt/egov/wlan/index.html","ANBIETER":"http://www.wien.gv.at/ikt/egov/wlan/wlan-multimediastationen.html","SE_ANNO_CAD_DATA":null}},{"type":"Feature","id":"WLANWIENATOGD.1548396","geometry":{"type":"Point","coordinates":[16.260795501845255,48.19827090483812]},"geometry_name":"SHAPE","properties":{"OBJECTID":1548396,"NAME":"Bahnhof Huetteldorf","ADRESSE":"14., Keisslergasse 18 ","WEITERE_INFORMATIONEN":"http://www.wien.gv.at/ikt/egov/wlan/index.html","ANBIETER":"http://www.wien.gv.at/ikt/egov/wlan/wlan-multimediastationen.html","SE_ANNO_CAD_DATA":null}},{"type":"Feature","id":"WLANWIENATOGD.1548397","geometry":{"type":"Point","coordinates":[16.31254720821029,48.19907238483423]},"geometry_name":"SHAPE","properties":{"OBJECTID":1548397,"NAME":"Huetteldorferstrasse","ADRESSE":"14., Huetteldorfer Strasse 113 ","WEITERE_INFORMATIONEN":"http://www.wien.gv.at/ikt/egov/wlan/index.html","ANBIETER":"http://www.wien.gv.at/ikt/egov/wlan/wlan-multimediastationen.html","SE_ANNO_CAD_DATA":null}},{"type":"Feature","id":"WLANWIENATOGD.1548398","geometry":{"type":"Point","coordinates":[16.334087311169963,48.20124343355202]},"geometry_name":"SHAPE","properties":{"OBJECTID":1548398,"NAME":"Maerzpark","ADRESSE":"15., Roland  Rainer Platz (1) ","WEITERE_INFORMATIONEN":"http://www.wien.gv.at/ikt/egov/wlan/index.html","ANBIETER":"http://www.wien.gv.at/ikt/egov/wlan/wlan-multimediastationen.html","SE_ANNO_CAD_DATA":null}},{"type":"Feature","id":"WLANWIENATOGD.1548399","geometry":{"type":"Point","coordinates":[16.334041404286765,48.20244829499339]},"geometry_name":"SHAPE","properties":{"OBJECTID":1548399,"NAME":"Maerzpark","ADRESSE":"15., Roland  Rainer Platz (2) ","WEITERE_INFORMATIONEN":"http://www.wien.gv.at/ikt/egov/wlan/index.html","ANBIETER":"http://www.wien.gv.at/ikt/egov/wlan/wlan-multimediastationen.html","SE_ANNO_CAD_DATA":null}},{"type":"Feature","id":"WLANWIENATOGD.1548400","geometry":{"type":"Point","coordinates":[16.33123156661599,48.19891798918486]},"geometry_name":"SHAPE","properties":{"OBJECTID":1548400,"NAME":"Reithofferplatz","ADRESSE":"15., Reithoffeplatz 1 ","WEITERE_INFORMATIONEN":"http://www.wien.gv.at/ikt/egov/wlan/index.html","ANBIETER":"http://www.wien.gv.at/ikt/egov/wlan/wlan-multimediastationen.html","SE_ANNO_CAD_DATA":null}},{"type":"Feature","id":"WLANWIENATOGD.1548401","geometry":{"type":"Point","coordinates":[16.325381282376185,48.19740430597498]},"geometry_name":"SHAPE","properties":{"OBJECTID":1548401,"NAME":"Kardinal Rauscher Platz ","ADRESSE":"15., Kardinal Rauscher Platz 2 ","WEITERE_INFORMATIONEN":"http://www.wien.gv.at/ikt/egov/wlan/index.html","ANBIETER":"http://www.wien.gv.at/ikt/egov/wlan/wlan-multimediastationen.html","SE_ANNO_CAD_DATA":null}},{"type":"Feature","id":"WLANWIENATOGD.1548402","geometry":{"type":"Point","coordinates":[16.31496072809225,48.206759247654155]},"geometry_name":"SHAPE","properties":{"OBJECTID":1548402,"NAME":"Rohrauerpark","ADRESSE":"15., Rohrauerpark ","WEITERE_INFORMATIONEN":"http://www.wien.gv.at/ikt/egov/wlan/index.html","ANBIETER":"http://www.wien.gv.at/ikt/egov/wlan/wlan-multimediastationen.html","SE_ANNO_CAD_DATA":null}},{"type":"Feature","id":"WLANWIENATOGD.1548403","geometry":{"type":"Point","coordinates":[16.319087991890417,48.19418235293109]},"geometry_name":"SHAPE","properties":{"OBJECTID":1548403,"NAME":"Wieningerplatz","ADRESSE":"15., Wieningerplatz 7 ","WEITERE_INFORMATIONEN":"http://www.wien.gv.at/ikt/egov/wlan/index.html","ANBIETER":"http://www.wien.gv.at/ikt/egov/wlan/wlan-multimediastationen.html","SE_ANNO_CAD_DATA":null}},{"type":"Feature","id":"WLANWIENATOGD.1548404","geometry":{"type":"Point","coordinates":[16.320068312068933,48.20406542621102]},"geometry_name":"SHAPE","properties":{"OBJECTID":1548404,"NAME":"Auf der Schmelz ","ADRESSE":"15., Auf der Schmelz 10 ","WEITERE_INFORMATIONEN":"http://www.wien.gv.at/ikt/egov/wlan/index.html","ANBIETER":"http://www.wien.gv.at/ikt/egov/wlan/wlan-multimediastationen.html","SE_ANNO_CAD_DATA":null}},{"type":"Feature","id":"WLANWIENATOGD.1548405","geometry":{"type":"Point","coordinates":[16.325766759317904,48.21308156581122]},"geometry_name":"SHAPE","properties":{"OBJECTID":1548405,"NAME":"Johann Nepomuk Berger Platz","ADRESSE":"16., Johann Nepomuk Berger Platz 12 ","WEITERE_INFORMATIONEN":"http://www.wien.gv.at/ikt/egov/wlan/index.html","ANBIETER":"http://www.wien.gv.at/ikt/egov/wlan/wlan-multimediastationen.html","SE_ANNO_CAD_DATA":null}},{"type":"Feature","id":"WLANWIENATOGD.1548406","geometry":{"type":"Point","coordinates":[16.338583833526997,48.211773419663636]},"geometry_name":"SHAPE","properties":{"OBJECTID":1548406,"NAME":"Yppenheim","ADRESSE":"16., Lerchenfelder Guertel 57 ","WEITERE_INFORMATIONEN":"http://www.wien.gv.at/ikt/egov/wlan/index.html","ANBIETER":"http://www.wien.gv.at/ikt/egov/wlan/wlan-multimediastationen.html","SE_ANNO_CAD_DATA":null}},{"type":"Feature","id":"WLANWIENATOGD.1548407","geometry":{"type":"Point","coordinates":[16.308956452805262,48.21372247425006]},"geometry_name":"SHAPE","properties":{"OBJECTID":1548407,"NAME":"Ottakringer Strasse 200","ADRESSE":"16., Ottakringer Strasse 200 ","WEITERE_INFORMATIONEN":"http://www.wien.gv.at/ikt/egov/wlan/index.html","ANBIETER":"http://www.wien.gv.at/ikt/egov/wlan/wlan-multimediastationen.html","SE_ANNO_CAD_DATA":null}},{"type":"Feature","id":"WLANWIENATOGD.1548408","geometry":{"type":"Point","coordinates":[16.332988421671928,48.20899152137519]},"geometry_name":"SHAPE","properties":{"OBJECTID":1548408,"NAME":"Hofferpark","ADRESSE":"16., Hofferplatz 6 ","WEITERE_INFORMATIONEN":"http://www.wien.gv.at/ikt/egov/wlan/index.html","ANBIETER":"http://www.wien.gv.at/ikt/egov/wlan/wlan-multimediastationen.html","SE_ANNO_CAD_DATA":null}},{"type":"Feature","id":"WLANWIENATOGD.1548409","geometry":{"type":"Point","coordinates":[16.327458463339433,48.20950754824884]},"geometry_name":"SHAPE","properties":{"OBJECTID":1548409,"NAME":"Richard Wagner Platz","ADRESSE":"16., Richard Wagner Platz 19 ","WEITERE_INFORMATIONEN":"http://www.wien.gv.at/ikt/egov/wlan/index.html","ANBIETER":"http://www.wien.gv.at/ikt/egov/wlan/wlan-multimediastationen.html","SE_ANNO_CAD_DATA":null}},{"type":"Feature","id":"WLANWIENATOGD.1548410","geometry":{"type":"Point","coordinates":[16.317006824876287,48.221346190530454]},"geometry_name":"SHAPE","properties":{"OBJECTID":1548410,"NAME":"Stoeberpark","ADRESSE":"16., Stoeberplatz geg 3 ","WEITERE_INFORMATIONEN":"http://www.wien.gv.at/ikt/egov/wlan/index.html","ANBIETER":"http://www.wien.gv.at/ikt/egov/wlan/wlan-multimediastationen.html","SE_ANNO_CAD_DATA":null}},{"type":"Feature","id":"WLANWIENATOGD.1548411","geometry":{"type":"Point","coordinates":[16.31867690755127,48.2103448912615]},"geometry_name":"SHAPE","properties":{"OBJECTID":1548411,"NAME":"Schuhmeierplatz","ADRESSE":"16., Schuhmeierplatz geg 8 ","WEITERE_INFORMATIONEN":"http://www.wien.gv.at/ikt/egov/wlan/index.html","ANBIETER":"http://www.wien.gv.at/ikt/egov/wlan/wlan-multimediastationen.html","SE_ANNO_CAD_DATA":null}},{"type":"Feature","id":"WLANWIENATOGD.1548412","geometry":{"type":"Point","coordinates":[16.304735190332558,48.21376246475975]},"geometry_name":"SHAPE","properties":{"OBJECTID":1548412,"NAME":"Karl Kantner Park","ADRESSE":"16., Thaliastrasse geg 157 ","WEITERE_INFORMATIONEN":"http://www.wien.gv.at/ikt/egov/wlan/index.html","ANBIETER":"http://www.wien.gv.at/ikt/egov/wlan/wlan-multimediastationen.html","SE_ANNO_CAD_DATA":null}},{"type":"Feature","id":"WLANWIENATOGD.1548413","geometry":{"type":"Point","coordinates":[16.312021298384774,48.21251358337184]},"geometry_name":"SHAPE","properties":{"OBJECTID":1548413,"NAME":"U3 Ottakring","ADRESSE":"16., Paltaufgasse 16 ","WEITERE_INFORMATIONEN":"http://www.wien.gv.at/ikt/egov/wlan/index.html","ANBIETER":"http://www.wien.gv.at/ikt/egov/wlan/wlan-multimediastationen.html","SE_ANNO_CAD_DATA":null}},{"type":"Feature","id":"WLANWIENATOGD.1548414","geometry":{"type":"Point","coordinates":[16.333767540471186,48.20586345128311]},"geometry_name":"SHAPE","properties":{"OBJECTID":1548414,"NAME":"Ludo Hartmann Platz","ADRESSE":"16., Ludo Hartmann Platz 4 ","WEITERE_INFORMATIONEN":"http://www.wien.gv.at/ikt/egov/wlan/index.html","ANBIETER":"http://www.wien.gv.at/ikt/egov/wlan/wlan-multimediastationen.html","SE_ANNO_CAD_DATA":null}},{"type":"Feature","id":"WLANWIENATOGD.1548415","geometry":{"type":"Point","coordinates":[16.323184430137626,48.22420480242852]},"geometry_name":"SHAPE","properties":{"OBJECTID":1548415,"NAME":"Lidlpark","ADRESSE":"17., Lidlpark ","WEITERE_INFORMATIONEN":"http://www.wien.gv.at/ikt/egov/wlan/index.html","ANBIETER":"http://www.wien.gv.at/ikt/egov/wlan/wlan-multimediastationen.html","SE_ANNO_CAD_DATA":null}},{"type":"Feature","id":"WLANWIENATOGD.1548416","geometry":{"type":"Point","coordinates":[16.276410390605506,48.24003396167631]},"geometry_name":"SHAPE","properties":{"OBJECTID":1548416,"NAME":"Marswiese","ADRESSE":"17., Neuwaldegger Strasse 57 ","WEITERE_INFORMATIONEN":"http://www.wien.gv.at/ikt/egov/wlan/index.html","ANBIETER":"http://www.wien.gv.at/ikt/egov/wlan/wlan-multimediastationen.html","SE_ANNO_CAD_DATA":null}},{"type":"Feature","id":"WLANWIENATOGD.1548417","geometry":{"type":"Point","coordinates":[16.298123614619715,48.229284946139956]},"geometry_name":"SHAPE","properties":{"OBJECTID":1548417,"NAME":"Rupertusplatz","ADRESSE":"17., Rupertusplatz 2 ","WEITERE_INFORMATIONEN":"http://www.wien.gv.at/ikt/egov/wlan/index.html","ANBIETER":"http://www.wien.gv.at/ikt/egov/wlan/wlan-multimediastationen.html","SE_ANNO_CAD_DATA":null}},{"type":"Feature","id":"WLANWIENATOGD.1548418","geometry":{"type":"Point","coordinates":[16.40728523254649,48.2812247231139]},"geometry_name":"SHAPE","properties":{"OBJECTID":1548418,"NAME":"Bernreiterpark","ADRESSE":"21., Bernreiterpark ","WEITERE_INFORMATIONEN":"http://www.wien.gv.at/ikt/egov/wlan/index.html","ANBIETER":"http://www.wien.gv.at/ikt/egov/wlan/wlan-multimediastationen.html","SE_ANNO_CAD_DATA":null}},{"type":"Feature","id":"WLANWIENATOGD.1548419","geometry":{"type":"Point","coordinates":[16.335116174118998,48.22645116208313]},"geometry_name":"SHAPE","properties":{"OBJECTID":1548419,"NAME":"Ebner Eschenbach Park","ADRESSE":"18., Ebner Eschenbach Park 78 ","WEITERE_INFORMATIONEN":"http://www.wien.gv.at/ikt/egov/wlan/index.html","ANBIETER":"http://www.wien.gv.at/ikt/egov/wlan/wlan-multimediastationen.html","SE_ANNO_CAD_DATA":null}},{"type":"Feature","id":"WLANWIENATOGD.1548420","geometry":{"type":"Point","coordinates":[16.371346151947932,48.229693524140785]},"geometry_name":"SHAPE","properties":{"OBJECTID":1548420,"NAME":"Wallensteinplatz","ADRESSE":"20., Wallensteinplatz geg 2 ","WEITERE_INFORMATIONEN":"http://www.wien.gv.at/ikt/egov/wlan/index.html","ANBIETER":"http://www.wien.gv.at/ikt/egov/wlan/wlan-multimediastationen.html","SE_ANNO_CAD_DATA":null}},{"type":"Feature","id":"WLANWIENATOGD.1548421","geometry":{"type":"Point","coordinates":[16.39967529307169,48.251312784394365]},"geometry_name":"SHAPE","properties":{"OBJECTID":1548421,"NAME":"Tora San Park","ADRESSE":"21., Brossmannplatz ","WEITERE_INFORMATIONEN":"http://www.wien.gv.at/ikt/egov/wlan/index.html","ANBIETER":"http://www.wien.gv.at/ikt/egov/wlan/wlan-multimediastationen.html","SE_ANNO_CAD_DATA":null}},{"type":"Feature","id":"WLANWIENATOGD.1548422","geometry":{"type":"Point","coordinates":[16.40363859616622,48.247392043961945]},"geometry_name":"SHAPE","properties":{"OBJECTID":1548422,"NAME":"Romaplatz","ADRESSE":"21., Romaplatz ","WEITERE_INFORMATIONEN":"http://www.wien.gv.at/ikt/egov/wlan/index.html","ANBIETER":"http://www.wien.gv.at/ikt/egov/wlan/wlan-multimediastationen.html","SE_ANNO_CAD_DATA":null}},{"type":"Feature","id":"WLANWIENATOGD.1548423","geometry":{"type":"Point","coordinates":[16.395530678858552,48.24619216570322]},"geometry_name":"SHAPE","properties":{"OBJECTID":1548423,"NAME":"U6 Station Neue Donau","ADRESSE":"21., U6 Station Neue Donau ","WEITERE_INFORMATIONEN":"http://www.wien.gv.at/ikt/egov/wlan/index.html","ANBIETER":"http://www.wien.gv.at/ikt/egov/wlan/wlan-multimediastationen.html","SE_ANNO_CAD_DATA":null}},{"type":"Feature","id":"WLANWIENATOGD.1548424","geometry":{"type":"Point","coordinates":[16.40811890564722,48.255021236109194]},"geometry_name":"SHAPE","properties":{"OBJECTID":1548424,"NAME":"Hossplatz","ADRESSE":"21., Hossplatz 12 ","WEITERE_INFORMATIONEN":"http://www.wien.gv.at/ikt/egov/wlan/index.html","ANBIETER":"http://www.wien.gv.at/ikt/egov/wlan/wlan-multimediastationen.html","SE_ANNO_CAD_DATA":null}},{"type":"Feature","id":"WLANWIENATOGD.1548425","geometry":{"type":"Point","coordinates":[16.424132072255404,48.22588666961058]},"geometry_name":"SHAPE","properties":{"OBJECTID":1548425,"NAME":"Schuettauplatz","ADRESSE":"22., Schuettauplatz ","WEITERE_INFORMATIONEN":"http://www.wien.gv.at/ikt/egov/wlan/index.html","ANBIETER":"http://www.wien.gv.at/ikt/egov/wlan/wlan-multimediastationen.html","SE_ANNO_CAD_DATA":null}},{"type":"Feature","id":"WLANWIENATOGD.1548426","geometry":{"type":"Point","coordinates":[16.443437455408343,48.25018812796545]},"geometry_name":"SHAPE","properties":{"OBJECTID":1548426,"NAME":"Kagraner Platz","ADRESSE":"22., Donaufelder Strasse 263 ","WEITERE_INFORMATIONEN":"http://www.wien.gv.at/ikt/egov/wlan/index.html","ANBIETER":"http://www.wien.gv.at/ikt/egov/wlan/wlan-multimediastationen.html","SE_ANNO_CAD_DATA":null}},{"type":"Feature","id":"WLANWIENATOGD.1548427","geometry":{"type":"Point","coordinates":[16.44831719957977,48.24876562189444]},"geometry_name":"SHAPE","properties":{"OBJECTID":1548427,"NAME":"Kagraner Platz","ADRESSE":"22., Kagraner Platz 15 ","WEITERE_INFORMATIONEN":"http://www.wien.gv.at/ikt/egov/wlan/index.html","ANBIETER":"http://www.wien.gv.at/ikt/egov/wlan/wlan-multimediastationen.html","SE_ANNO_CAD_DATA":null}},{"type":"Feature","id":"WLANWIENATOGD.1548428","geometry":{"type":"Point","coordinates":[16.52611163299607,48.21408536739169]},"geometry_name":"SHAPE","properties":{"OBJECTID":1548428,"NAME":"Bill Grah Park","ADRESSE":"22., Esslinger Hauptstrasse 94 ","WEITERE_INFORMATIONEN":"http://www.wien.gv.at/ikt/egov/wlan/index.html","ANBIETER":"http://www.wien.gv.at/ikt/egov/wlan/wlan-multimediastationen.html","SE_ANNO_CAD_DATA":null}},{"type":"Feature","id":"WLANWIENATOGD.1548429","geometry":{"type":"Point","coordinates":[16.474370712962543,48.22242472761673]},"geometry_name":"SHAPE","properties":{"OBJECTID":1548429,"NAME":"Wonkaplatz","ADRESSE":"22., Erzherzog Karl Strasse 209 ","WEITERE_INFORMATIONEN":"http://www.wien.gv.at/ikt/egov/wlan/index.html","ANBIETER":"http://www.wien.gv.at/ikt/egov/wlan/wlan-multimediastationen.html","SE_ANNO_CAD_DATA":null}},{"type":"Feature","id":"WLANWIENATOGD.1548430","geometry":{"type":"Point","coordinates":[16.486428670150527,48.21756179843871]},"geometry_name":"SHAPE","properties":{"OBJECTID":1548430,"NAME":"Siegesplatz","ADRESSE":"22., Siegesplatz 9 ","WEITERE_INFORMATIONEN":"http://www.wien.gv.at/ikt/egov/wlan/index.html","ANBIETER":"http://www.wien.gv.at/ikt/egov/wlan/wlan-multimediastationen.html","SE_ANNO_CAD_DATA":null}},{"type":"Feature","id":"WLANWIENATOGD.1548431","geometry":{"type":"Point","coordinates":[16.415197337352872,48.23228499996616]},"geometry_name":"SHAPE","properties":{"OBJECTID":1548431,"NAME":"Platz der Vereinten Nationen","ADRESSE":"22., Platz der Vereinten Nationen ","WEITERE_INFORMATIONEN":"http://www.wien.gv.at/ikt/egov/wlan/index.html","ANBIETER":"http://www.wien.gv.at/ikt/egov/wlan/wlan-multimediastationen.html","SE_ANNO_CAD_DATA":null}},{"type":"Feature","id":"WLANWIENATOGD.1548432","geometry":{"type":"Point","coordinates":[16.464572763409898,48.2195078079605]},"geometry_name":"SHAPE","properties":{"OBJECTID":1548432,"NAME":"SMZ Ost Donauspital","ADRESSE":"22., Langobardenstrasse 122 ","WEITERE_INFORMATIONEN":"http://www.wien.gv.at/ikt/egov/wlan/index.html","ANBIETER":"http://www.wien.gv.at/ikt/egov/wlan/wlan-multimediastationen.html","SE_ANNO_CAD_DATA":null}},{"type":"Feature","id":"WLANWIENATOGD.1548433","geometry":{"type":"Point","coordinates":[16.44913639602845,48.257381907490505]},"geometry_name":"SHAPE","properties":{"OBJECTID":1548433,"NAME":"U1 Rennbahnweg","ADRESSE":"22., Rennbahnweg 38A ","WEITERE_INFORMATIONEN":"http://www.wien.gv.at/ikt/egov/wlan/index.html","ANBIETER":"http://www.wien.gv.at/ikt/egov/wlan/wlan-multimediastationen.html","SE_ANNO_CAD_DATA":null}},{"type":"Feature","id":"WLANWIENATOGD.1548434","geometry":{"type":"Point","coordinates":[16.31302957280954,48.130759342165405]},"geometry_name":"SHAPE","properties":{"OBJECTID":1548434,"NAME":"Wiener Flur Park","ADRESSE":"23., Wiener Flur Park ","WEITERE_INFORMATIONEN":"http://www.wien.gv.at/ikt/egov/wlan/index.html","ANBIETER":"http://www.wien.gv.at/ikt/egov/wlan/wlan-multimediastationen.html","SE_ANNO_CAD_DATA":null}},{"type":"Feature","id":"WLANWIENATOGD.1548435","geometry":{"type":"Point","coordinates":[16.31224338164067,48.147842197501355]},"geometry_name":"SHAPE","properties":{"OBJECTID":1548435,"NAME":"Alma Seidler Weg","ADRESSE":"23., Alma Seidler Weg 2 ","WEITERE_INFORMATIONEN":"http://www.wien.gv.at/ikt/egov/wlan/index.html","ANBIETER":"http://www.wien.gv.at/ikt/egov/wlan/wlan-multimediastationen.html","SE_ANNO_CAD_DATA":null}},{"type":"Feature","id":"WLANWIENATOGD.1548436","geometry":{"type":"Point","coordinates":[16.282498217750877,48.135265099935246]},"geometry_name":"SHAPE","properties":{"OBJECTID":1548436,"NAME":"Liesinger Platz","ADRESSE":"23., Liesinger Platz ","WEITERE_INFORMATIONEN":"http://www.wien.gv.at/ikt/egov/wlan/index.html","ANBIETER":"http://www.wien.gv.at/ikt/egov/wlan/wlan-multimediastationen.html","SE_ANNO_CAD_DATA":null}},{"type":"Feature","id":"WLANWIENATOGD.1548437","geometry":{"type":"Point","coordinates":[16.268698891634973,48.15046922017304]},"geometry_name":"SHAPE","properties":{"OBJECTID":1548437,"NAME":"Maurer Hauptplatz","ADRESSE":"23., Gesslgasse geg 1 ","WEITERE_INFORMATIONEN":"http://www.wien.gv.at/ikt/egov/wlan/index.html","ANBIETER":"http://www.wien.gv.at/ikt/egov/wlan/wlan-multimediastationen.html","SE_ANNO_CAD_DATA":null}},{"type":"Feature","id":"WLANWIENATOGD.1548438","geometry":{"type":"Point","coordinates":[16.315220118970608,48.14031423285564]},"geometry_name":"SHAPE","properties":{"OBJECTID":1548438,"NAME":"PaN Park","ADRESSE":"23., Carlbergergasse 72 ","WEITERE_INFORMATIONEN":"http://www.wien.gv.at/ikt/egov/wlan/index.html","ANBIETER":"http://www.wien.gv.at/ikt/egov/wlan/wlan-multimediastationen.html","SE_ANNO_CAD_DATA":null}},{"type":"Feature","id":"WLANWIENATOGD.1548439","geometry":{"type":"Point","coordinates":[16.31757073240557,48.151063649439045]},"geometry_name":"SHAPE","properties":{"OBJECTID":1548439,"NAME":"Erlaa Schleife","ADRESSE":"23., Erlaa Schleife ","WEITERE_INFORMATIONEN":"http://www.wien.gv.at/ikt/egov/wlan/index.html","ANBIETER":"http://www.wien.gv.at/ikt/egov/wlan/wlan-multimediastationen.html","SE_ANNO_CAD_DATA":null}},{"type":"Feature","id":"WLANWIENATOGD.1548440","geometry":{"type":"Point","coordinates":[16.296775743032196,48.146184997871536]},"geometry_name":"SHAPE","properties":{"OBJECTID":1548440,"NAME":"Atzgersdorfer Platz","ADRESSE":"23., Atzgersdorfer Platz ","WEITERE_INFORMATIONEN":"http://www.wien.gv.at/ikt/egov/wlan/index.html","ANBIETER":"http://www.wien.gv.at/ikt/egov/wlan/wlan-multimediastationen.html","SE_ANNO_CAD_DATA":null}},{"type":"Feature","id":"WLANWIENATOGD.1548441","geometry":{"type":"Point","coordinates":[16.31015674193883,48.12952214300599]},"geometry_name":"SHAPE","properties":{"OBJECTID":1548441,"NAME":"Porschestrasse ","ADRESSE":"23., Basler Gasse 77 ","WEITERE_INFORMATIONEN":"http://www.wien.gv.at/ikt/egov/wlan/index.html","ANBIETER":"http://www.wien.gv.at/ikt/egov/wlan/wlan-multimediastationen.html","SE_ANNO_CAD_DATA":null}},{"type":"Feature","id":"WLANWIENATOGD.1548442","geometry":{"type":"Point","coordinates":[16.3469953325304,48.15001769048821]},"geometry_name":"SHAPE","properties":{"OBJECTID":1548442,"NAME":"Inzersdorf Kirchenplatz","ADRESSE":"23., Draschestrasse 98 ","WEITERE_INFORMATIONEN":"http://www.wien.gv.at/ikt/egov/wlan/index.html","ANBIETER":"http://www.wien.gv.at/ikt/egov/wlan/wlan-multimediastationen.html","SE_ANNO_CAD_DATA":null}},{"type":"Feature","id":"WLANWIENATOGD.1548443","geometry":{"type":"Point","coordinates":[16.33228466381661,48.217467742284576]},"geometry_name":"SHAPE","properties":{"OBJECTID":1548443,"NAME":"St. Bartholomaeus Platz","ADRESSE":"17., Kalvarienberggasse 26A ","WEITERE_INFORMATIONEN":"http://www.wien.gv.at/ikt/egov/wlan/index.html","ANBIETER":"http://www.wien.gv.at/ikt/egov/wlan/wlan-multimediastationen.html","SE_ANNO_CAD_DATA":null}},{"type":"Feature","id":"WLANWIENATOGD.1548444","geometry":{"type":"Point","coordinates":[16.392944808329084,48.25149248654951]},"geometry_name":"SHAPE","properties":{"OBJECTID":1548444,"NAME":"Wasserpark","ADRESSE":"21., Wasserpark Fitnessplatz ","WEITERE_INFORMATIONEN":"http://www.wien.gv.at/ikt/egov/wlan/index.html","ANBIETER":"http://www.wien.gv.at/ikt/egov/wlan/wlan-multimediastationen.html","SE_ANNO_CAD_DATA":null}},{"type":"Feature","id":"WLANWIENATOGD.1548445","geometry":{"type":"Point","coordinates":[16.36467705731315,48.2118332227899]},"geometry_name":"SHAPE","properties":{"OBJECTID":1548445,"NAME":"Freyung 6A","ADRESSE":"1., Freyung 6A ","WEITERE_INFORMATIONEN":"http://www.wien.gv.at/ikt/egov/wlan/index.html","ANBIETER":"http://www.wien.gv.at/ikt/egov/wlan/wlan-multimediastationen.html","SE_ANNO_CAD_DATA":null}},{"type":"Feature","id":"WLANWIENATOGD.1548446","geometry":{"type":"Point","coordinates":[16.31093801229327,48.195995293040774]},"geometry_name":"SHAPE","properties":{"OBJECTID":1548446,"NAME":null,"ADRESSE":"14., Reinlpark ","WEITERE_INFORMATIONEN":"http://www.wien.gv.at/ikt/egov/wlan/index.html","ANBIETER":"http://www.wien.gv.at/ikt/egov/wlan/wlan-multimediastationen.html","SE_ANNO_CAD_DATA":null}},{"type":"Feature","id":"WLANWIENATOGD.1548449","geometry":{"type":"Point","coordinates":[16.394585089158706,48.25259629577313]},"geometry_name":"SHAPE","properties":{"OBJECTID":1548449,"NAME":"Wasserpark","ADRESSE":"21., Wasserpark Spielplatz ","WEITERE_INFORMATIONEN":"http://www.wien.gv.at/ikt/egov/wlan/index.html","ANBIETER":"http://www.wien.gv.at/ikt/egov/wlan/wlan-multimediastationen.html","SE_ANNO_CAD_DATA":null}},{"type":"Feature","id":"WLANWIENATOGD.1548450","geometry":{"type":"Point","coordinates":[16.320836688190106,48.19750689680567]},"geometry_name":"SHAPE","properties":{"OBJECTID":1548450,"NAME":"Wasserwelt","ADRESSE":"15., Meiselstrasse 11 ","WEITERE_INFORMATIONEN":"http://www.wien.gv.at/ikt/egov/wlan/index.html","ANBIETER":"http://www.wien.gv.at/ikt/egov/wlan/wlan-multimediastationen.html","SE_ANNO_CAD_DATA":null}},{"type":"Feature","id":"WLANWIENATOGD.1548454","geometry":{"type":"Point","coordinates":[16.332019574846846,48.26609840476728]},"geometry_name":"SHAPE","properties":{"OBJECTID":1548454,"NAME":"Krapfenwaldbad_Master","ADRESSE":"19., Krapfenwaldbad_Master ","WEITERE_INFORMATIONEN":"http://www.wien.gv.at/ikt/egov/wlan/index.html","ANBIETER":"http://www.wien.gv.at/ikt/egov/wlan/wlan-multimediastationen.html","SE_ANNO_CAD_DATA":null}},{"type":"Feature","id":"WLANWIENATOGD.1548455","geometry":{"type":"Point","coordinates":[16.384745863886877,48.24134949667981]},"geometry_name":"SHAPE","properties":{"OBJECTID":1548455,"NAME":"Maria-Restituta-Platz","ADRESSE":"20., Maria-Restituta-Platz ","WEITERE_INFORMATIONEN":"http://www.wien.gv.at/ikt/egov/wlan/index.html","ANBIETER":"http://www.wien.gv.at/ikt/egov/wlan/wlan-multimediastationen.html","SE_ANNO_CAD_DATA":null}},{"type":"Feature","id":"WLANWIENATOGD.1548456","geometry":{"type":"Point","coordinates":[16.3458658942341,48.200542381113515]},"geometry_name":"SHAPE","properties":{"OBJECTID":1548456,"NAME":"Dorothea-Neff-Park","ADRESSE":"7., Bandgasse 2 ","WEITERE_INFORMATIONEN":"http://www.wien.gv.at/ikt/egov/wlan/index.html","ANBIETER":"http://www.wien.gv.at/ikt/egov/wlan/wlan-multimediastationen.html","SE_ANNO_CAD_DATA":null}},{"type":"Feature","id":"WLANWIENATOGD.1548457","geometry":{"type":"Point","coordinates":[16.404043801289006,48.26815125157406]},"geometry_name":"SHAPE","properties":{"OBJECTID":1548457,"NAME":"KH Nord","ADRESSE":"21., Bruennerstrasse 68 ","WEITERE_INFORMATIONEN":"http://www.wien.gv.at/ikt/egov/wlan/index.html","ANBIETER":"http://www.wien.gv.at/ikt/egov/wlan/wlan-multimediastationen.html","SE_ANNO_CAD_DATA":null}},{"type":"Feature","id":"WLANWIENATOGD.1548458","geometry":{"type":"Point","coordinates":[16.324055045055644,48.19683313435441]},"geometry_name":"SHAPE","properties":{"OBJECTID":1548458,"NAME":"Kardinal Rauscher Platz  Kirche\r\nKirche","ADRESSE":"15., Kardinal Rauscher Platz 2 ","WEITERE_INFORMATIONEN":"http://www.wien.gv.at/ikt/egov/wlan/index.html","ANBIETER":"http://www.wien.gv.at/ikt/egov/wlan/wlan-multimediastationen.html","SE_ANNO_CAD_DATA":null}},{"type":"Feature","id":"WLANWIENATOGD.1548459","geometry":{"type":"Point","coordinates":[16.322591305839808,48.19737293718072]},"geometry_name":"SHAPE","properties":{"OBJECTID":1548459,"NAME":"Meiselstrasse 2","ADRESSE":"15., Meiselstrasse 2 ","WEITERE_INFORMATIONEN":"http://www.wien.gv.at/ikt/egov/wlan/index.html","ANBIETER":"http://www.wien.gv.at/ikt/egov/wlan/wlan-multimediastationen.html","SE_ANNO_CAD_DATA":null}},{"type":"Feature","id":"WLANWIENATOGD.1548460","geometry":{"type":"Point","coordinates":[16.393063763363763,48.23287037475946]},"geometry_name":"SHAPE","properties":{"OBJECTID":1548460,"NAME":"Parkanlage Innstrasse","ADRESSE":"2., Engerthstrasse geg. 137 ","WEITERE_INFORMATIONEN":"http://www.wien.gv.at/ikt/egov/wlan/index.html","ANBIETER":"http://www.wien.gv.at/ikt/egov/wlan/wlan-multimediastationen.html","SE_ANNO_CAD_DATA":null}},{"type":"Feature","id":"WLANWIENATOGD.1548461","geometry":{"type":"Point","coordinates":[16.42025643377853,48.169823033588045]},"geometry_name":"SHAPE","properties":{"OBJECTID":1548461,"NAME":"Simmeringer Platz 2","ADRESSE":"11., Simmeringer Platz geg 1 ","WEITERE_INFORMATIONEN":"http://www.wien.gv.at/ikt/egov/wlan/index.html","ANBIETER":"http://www.wien.gv.at/ikt/egov/wlan/wlan-multimediastationen.html","SE_ANNO_CAD_DATA":null}},{"type":"Feature","id":"WLANWIENATOGD.1548462","geometry":{"type":"Point","coordinates":[16.326184422763202,48.221401246668314]},"geometry_name":"SHAPE","properties":{"OBJECTID":1548462,"NAME":"Gschwandnergasse 62","ADRESSE":"17., Gschwandnergasse 62 ","WEITERE_INFORMATIONEN":"http://www.wien.gv.at/ikt/egov/wlan/index.html","ANBIETER":"http://www.wien.gv.at/ikt/egov/wlan/wlan-multimediastationen.html","SE_ANNO_CAD_DATA":null}},{"type":"Feature","id":"WLANWIENATOGD.1548463","geometry":{"type":"Point","coordinates":[16.368539306610685,48.21005680007827]},"geometry_name":"SHAPE","properties":{"OBJECTID":1548463,"NAME":"Bognergasse ","ADRESSE":"1., Bognergasse 4 ","WEITERE_INFORMATIONEN":"http://www.wien.gv.at/ikt/egov/wlan/index.html","ANBIETER":"http://www.wien.gv.at/ikt/egov/wlan/wlan-multimediastationen.html","SE_ANNO_CAD_DATA":null}},{"type":"Feature","id":"WLANWIENATOGD.1548464","geometry":{"type":"Point","coordinates":[16.36894451265061,48.20976196954249]},"geometry_name":"SHAPE","properties":{"OBJECTID":1548464,"NAME":"Tuchlauben","ADRESSE":"1., Tuchlauben 2  ","WEITERE_INFORMATIONEN":"http://www.wien.gv.at/ikt/egov/wlan/index.html","ANBIETER":"http://www.wien.gv.at/ikt/egov/wlan/wlan-multimediastationen.html","SE_ANNO_CAD_DATA":null}},{"type":"Feature","id":"WLANWIENATOGD.1548465","geometry":{"type":"Point","coordinates":[16.366083953697807,48.20949954012878]},"geometry_name":"SHAPE","properties":{"OBJECTID":1548465,"NAME":"Herrengasse","ADRESSE":"1., Fahnengasse 2 ","WEITERE_INFORMATIONEN":"http://www.wien.gv.at/ikt/egov/wlan/index.html","ANBIETER":"http://www.wien.gv.at/ikt/egov/wlan/wlan-multimediastationen.html","SE_ANNO_CAD_DATA":null}},{"type":"Feature","id":"WLANWIENATOGD.1548466","geometry":{"type":"Point","coordinates":[16.327527314995002,48.15944745514339]},"geometry_name":"SHAPE","properties":{"OBJECTID":1548466,"NAME":"Schöpfwerk","ADRESSE":"12., Parkanlage Schöpfwerk ","WEITERE_INFORMATIONEN":"http://www.wien.gv.at/ikt/egov/wlan/index.html","ANBIETER":"http://www.wien.gv.at/ikt/egov/wlan/wlan-multimediastationen.html","SE_ANNO_CAD_DATA":null}},{"type":"Feature","id":"WLANWIENATOGD.1548467","geometry":{"type":"Point","coordinates":[16.418251816715927,48.242235438403476]},"geometry_name":"SHAPE","properties":{"OBJECTID":1548467,"NAME":"Alte Donau Bad 2","ADRESSE":"22., Arbeiterstrandbadstrasse 91 ","WEITERE_INFORMATIONEN":"http://www.wien.gv.at/ikt/egov/wlan/index.html","ANBIETER":"http://www.wien.gv.at/ikt/egov/wlan/wlan-multimediastationen.html","SE_ANNO_CAD_DATA":null}},{"type":"Feature","id":"WLANWIENATOGD.1548468","geometry":{"type":"Point","coordinates":[16.40956040859322,48.23208064522991]},"geometry_name":"SHAPE","properties":{"OBJECTID":1548468,"NAME":"Copa Beach 1","ADRESSE":"22., Copa Cagrana ","WEITERE_INFORMATIONEN":"http://www.wien.gv.at/ikt/egov/wlan/index.html","ANBIETER":"http://www.wien.gv.at/ikt/egov/wlan/wlan-multimediastationen.html","SE_ANNO_CAD_DATA":null}},{"type":"Feature","id":"WLANWIENATOGD.1548469","geometry":{"type":"Point","coordinates":[16.409885015800153,48.23181869818634]},"geometry_name":"SHAPE","properties":{"OBJECTID":1548469,"NAME":"Copa Beach 2","ADRESSE":"22., Copa Cagrana ","WEITERE_INFORMATIONEN":"http://www.wien.gv.at/ikt/egov/wlan/index.html","ANBIETER":"http://www.wien.gv.at/ikt/egov/wlan/wlan-multimediastationen.html","SE_ANNO_CAD_DATA":null}},{"type":"Feature","id":"WLANWIENATOGD.1548470","geometry":{"type":"Point","coordinates":[16.405915850928796,48.277125264636275]},"geometry_name":"SHAPE","properties":{"OBJECTID":1548470,"NAME":"Haspingerplatz","ADRESSE":"21., Haspingerplatz geg 1 ","WEITERE_INFORMATIONEN":"http://www.wien.gv.at/ikt/egov/wlan/index.html","ANBIETER":"http://www.wien.gv.at/ikt/egov/wlan/wlan-multimediastationen.html","SE_ANNO_CAD_DATA":null}},{"type":"Feature","id":"WLANWIENATOGD.1548471","geometry":{"type":"Point","coordinates":[16.349409980532204,48.23329585960496]},"geometry_name":"SHAPE","properties":{"OBJECTID":1548471,"NAME":"Waehringerpark_Phillippovichgasse","ADRESSE":"18., Waehringerpark ","WEITERE_INFORMATIONEN":"http://www.wien.gv.at/ikt/egov/wlan/index.html","ANBIETER":"http://www.wien.gv.at/ikt/egov/wlan/wlan-multimediastationen.html","SE_ANNO_CAD_DATA":null}},{"type":"Feature","id":"WLANWIENATOGD.1548472","geometry":{"type":"Point","coordinates":[16.347887138854215,48.23208548615568]},"geometry_name":"SHAPE","properties":{"OBJECTID":1548472,"NAME":"Waehringerpark_Skaterpark","ADRESSE":"18., Waehringerpark ","WEITERE_INFORMATIONEN":"http://www.wien.gv.at/ikt/egov/wlan/index.html","ANBIETER":"http://www.wien.gv.at/ikt/egov/wlan/wlan-multimediastationen.html","SE_ANNO_CAD_DATA":null}},{"type":"Feature","id":"WLANWIENATOGD.1548473","geometry":{"type":"Point","coordinates":[16.348243195165796,48.23170473876423]},"geometry_name":"SHAPE","properties":{"OBJECTID":1548473,"NAME":"Waehringerpark_Spielplatz","ADRESSE":"18., Waehringerpark ","WEITERE_INFORMATIONEN":"http://www.wien.gv.at/ikt/egov/wlan/index.html","ANBIETER":"http://www.wien.gv.at/ikt/egov/wlan/wlan-multimediastationen.html","SE_ANNO_CAD_DATA":null}},{"type":"Feature","id":"WLANWIENATOGD.1548474","geometry":{"type":"Point","coordinates":[16.392361804511566,48.229178420965326]},"geometry_name":"SHAPE","properties":{"OBJECTID":1548474,"NAME":"Nordbahnhofgelaende","ADRESSE":"2., Nordbahnhofgelaende ","WEITERE_INFORMATIONEN":"http://www.wien.gv.at/ikt/egov/wlan/index.html","ANBIETER":"http://www.wien.gv.at/ikt/egov/wlan/wlan-multimediastationen.html","SE_ANNO_CAD_DATA":null}},{"type":"Feature","id":"WLANWIENATOGD.1548049","geometry":{"type":"Point","coordinates":[16.371370924800157,48.20800678900329]},"geometry_name":"SHAPE","properties":{"OBJECTID":1548049,"NAME":"Stephansplatz1","ADRESSE":"1., Seilergasse 1 ","WEITERE_INFORMATIONEN":"http://www.wien.gv.at/ikt/egov/wlan/index.html","ANBIETER":"http://www.wien.gv.at/ikt/egov/wlan/wlan-multimediastationen.html","SE_ANNO_CAD_DATA":null}},{"type":"Feature","id":"WLANWIENATOGD.1548050","geometry":{"type":"Point","coordinates":[16.36116716946814,48.202505553759686]},"geometry_name":"SHAPE","properties":{"OBJECTID":1548050,"NAME":"Mariahilferstr 2","ADRESSE":"7., Mariahilferstrasse 2 ","WEITERE_INFORMATIONEN":"http://www.wien.gv.at/ikt/egov/wlan/index.html","ANBIETER":"http://www.wien.gv.at/ikt/egov/wlan/wlan-multimediastationen.html","SE_ANNO_CAD_DATA":null}},{"type":"Feature","id":"WLANWIENATOGD.1548051","geometry":{"type":"Point","coordinates":[16.359454849251204,48.20124143701566]},"geometry_name":"SHAPE","properties":{"OBJECTID":1548051,"NAME":"Mariahilferstr 12","ADRESSE":"7., Mariahilferstrasse 12 ","WEITERE_INFORMATIONEN":"http://www.wien.gv.at/ikt/egov/wlan/index.html","ANBIETER":"http://www.wien.gv.at/ikt/egov/wlan/wlan-multimediastationen.html","SE_ANNO_CAD_DATA":null}},{"type":"Feature","id":"WLANWIENATOGD.1548052","geometry":{"type":"Point","coordinates":[16.35742519399335,48.20075155961123]},"geometry_name":"SHAPE","properties":{"OBJECTID":1548052,"NAME":"Mariahilferstr 22","ADRESSE":"7., Mariahilferstrasse 22 ","WEITERE_INFORMATIONEN":"http://www.wien.gv.at/ikt/egov/wlan/index.html","ANBIETER":"http://www.wien.gv.at/ikt/egov/wlan/wlan-multimediastationen.html","SE_ANNO_CAD_DATA":null}},{"type":"Feature","id":"WLANWIENATOGD.1548053","geometry":{"type":"Point","coordinates":[16.355461712338535,48.200128320136756]},"geometry_name":"SHAPE","properties":{"OBJECTID":1548053,"NAME":"Mariahilferstr 41","ADRESSE":"7., Mariahilferstrasse 41 ","WEITERE_INFORMATIONEN":"http://www.wien.gv.at/ikt/egov/wlan/index.html","ANBIETER":"http://www.wien.gv.at/ikt/egov/wlan/wlan-multimediastationen.html","SE_ANNO_CAD_DATA":null}},{"type":"Feature","id":"WLANWIENATOGD.1548054","geometry":{"type":"Point","coordinates":[16.35327984830746,48.199600497746594]},"geometry_name":"SHAPE","properties":{"OBJECTID":1548054,"NAME":"Mariahilferstr 42","ADRESSE":"7., Mariahilferstrasse 42 ","WEITERE_INFORMATIONEN":"http://www.wien.gv.at/ikt/egov/wlan/index.html","ANBIETER":"http://www.wien.gv.at/ikt/egov/wlan/wlan-multimediastationen.html","SE_ANNO_CAD_DATA":null}},{"type":"Feature","id":"WLANWIENATOGD.1548055","geometry":{"type":"Point","coordinates":[16.351383789992664,48.198758643819424]},"geometry_name":"SHAPE","properties":{"OBJECTID":1548055,"NAME":"Mariahilferstr 67","ADRESSE":"6., Mariahilferstrasse 67 ","WEITERE_INFORMATIONEN":"http://www.wien.gv.at/ikt/egov/wlan/index.html","ANBIETER":"http://www.wien.gv.at/ikt/egov/wlan/wlan-multimediastationen.html","SE_ANNO_CAD_DATA":null}},{"type":"Feature","id":"WLANWIENATOGD.1548056","geometry":{"type":"Point","coordinates":[16.350027685085003,48.19819413412909]},"geometry_name":"SHAPE","properties":{"OBJECTID":1548056,"NAME":"Mariahilferstr 75","ADRESSE":"6., Mariahilferstrasse 75 ","WEITERE_INFORMATIONEN":"http://www.wien.gv.at/ikt/egov/wlan/index.html","ANBIETER":"http://www.wien.gv.at/ikt/egov/wlan/wlan-multimediastationen.html","SE_ANNO_CAD_DATA":null}},{"type":"Feature","id":"WLANWIENATOGD.1548057","geometry":{"type":"Point","coordinates":[16.347715996364492,48.19757790851492]},"geometry_name":"SHAPE","properties":{"OBJECTID":1548057,"NAME":"Mariahilferstr 84","ADRESSE":"7., Mariahilferstrasse 84 ","WEITERE_INFORMATIONEN":"http://www.wien.gv.at/ikt/egov/wlan/index.html","ANBIETER":"http://www.wien.gv.at/ikt/egov/wlan/wlan-multimediastationen.html","SE_ANNO_CAD_DATA":null}},{"type":"Feature","id":"WLANWIENATOGD.1548058","geometry":{"type":"Point","coordinates":[16.346187487187663,48.19707479429132]},"geometry_name":"SHAPE","properties":{"OBJECTID":1548058,"NAME":"Mariahilferstr 97","ADRESSE":"6., Mariahilferstrasse 97 ","WEITERE_INFORMATIONEN":"http://www.wien.gv.at/ikt/egov/wlan/index.html","ANBIETER":"http://www.wien.gv.at/ikt/egov/wlan/wlan-multimediastationen.html","SE_ANNO_CAD_DATA":null}},{"type":"Feature","id":"WLANWIENATOGD.1548059","geometry":{"type":"Point","coordinates":[16.344331720992756,48.19680514708163]},"geometry_name":"SHAPE","properties":{"OBJECTID":1548059,"NAME":"Mariahilferstr 102","ADRESSE":"7., Mariahilferstrasse 102 ","WEITERE_INFORMATIONEN":"http://www.wien.gv.at/ikt/egov/wlan/index.html","ANBIETER":"http://www.wien.gv.at/ikt/egov/wlan/wlan-multimediastationen.html","SE_ANNO_CAD_DATA":null}},{"type":"Feature","id":"WLANWIENATOGD.1548060","geometry":{"type":"Point","coordinates":[16.34198256246057,48.19626711247864]},"geometry_name":"SHAPE","properties":{"OBJECTID":1548060,"NAME":"Mariahilferstr 119","ADRESSE":"6., Mariahilferstrasse 119 ","WEITERE_INFORMATIONEN":"http://www.wien.gv.at/ikt/egov/wlan/index.html","ANBIETER":"http://www.wien.gv.at/ikt/egov/wlan/wlan-multimediastationen.html","SE_ANNO_CAD_DATA":null}},{"type":"Feature","id":"WLANWIENATOGD.1548061","geometry":{"type":"Point","coordinates":[16.34024763155712,48.19574088006576]},